ID,WikiDataID,Type,City,Name,Country,CountryCode,Region,RegionCode,Latitude,Longitude,Population
3350606,Q24668,CITY,Aixirivall,Aixirivall,Andorra,AD,Sant Julià de Lòria,06,42.46245,1.50209,1025
3216144,Q24656,CITY,Aixovall,Aixovall,Andorra,AD,Sant Julià de Lòria,06,42.47635833,1.48949167,69
3406038,Q4699394,CITY,Aixàs,Aixàs,Andorra,AD,Sant Julià de Lòria,06,42.48638889,1.46722222,0
3360277,Q24475,CITY,Ansalonga,Ansalonga,Andorra,AD,Ordino,05,42.568443,1.521571,0
3341362,Q24551,CITY,Anyós,Anyós,Andorra,AD,La Massana,04,42.53459167,1.54165,1006
3361293,Q24478,CITY,Arans,Arans,Andorra,AD,Ordino,05,42.58333333,1.51666667,0
866,Q24554,CITY,Arinsal,Arinsal,Andorra,AD,La Massana,04,42.56666667,1.48333333,1419
3394034,Q24650,CITY,Aubinyà,Aubinyà,Andorra,AD,Sant Julià de Lòria,06,42.4528,1.493,0
3292906,Q24641,CITY,Bixessarri,Bixessarri,Andorra,AD,Sant Julià de Lòria,06,42.48251111,1.45860833,0
3481376,Q4944722,CITY,Bordes d'Envalira,Bordes d'Envalira,Andorra,AD,Canillo,02,42.56666667,1.61666667,0
3852308,Q5034280,CITY,Canòlic,Canòlic,Andorra,AD,Sant Julià de Lòria,06,42.47444444,1.45194444,0
3403329,Q24630,CITY,Certés,Certés,Andorra,AD,Sant Julià de Lòria,06,42.47527778,1.50583333,0
3851202,Q24379,CITY,El Forn,El Forn,Andorra,AD,Canillo,02,42.53333333,1.56666667,99
408,Q24456,CITY,El Pas de la Casa,El Pas de la Casa,Andorra,AD,Encamp,03,42.54277,1.73361,1927
3206457,Q24490,CITY,El Serrat,El Serrat,Andorra,AD,Ordino,05,42.618123,1.538225,0
614,Q24413,CITY,El Tarter,El Tarter,Andorra,AD,Canillo,02,42.58333333,1.65,747
3354198,Q24411,CITY,El Vilar,El Vilar,Andorra,AD,Canillo,02,42.56666667,1.6,0
3489827,Q24417,CITY,Els Plans,Els Plans,Andorra,AD,Canillo,02,42.580603,1.635486,38
3496486,Q1154347,CITY,Els Vilars d'Engordany,Els Vilars d'Engordany,Andorra,AD,Escaldes-Engordany,08,42.51636,1.53356,0
3851452,Q746899,CITY,Engolasters,Engolasters,Andorra,AD,Escaldes-Engordany,08,42.51147,1.560467,0
3200831,Q586510,CITY,Engordany,Engordany,Andorra,AD,Escaldes-Engordany,08,42.511830555,1.540075,0
3282473,Q24556,CITY,Erts,Erts,Andorra,AD,La Massana,04,42.56361111,1.495,0
3356743,Q24566,CITY,Escàs,Escàs,Andorra,AD,La Massana,04,42.55,1.51666667,0
3482283,Q24629,CITY,Fontaneda,Fontaneda,Andorra,AD,Sant Julià de Lòria,06,42.4539,1.4575,110
3228107,Q24388,CITY,Incles,Incles,Andorra,AD,Canillo,02,42.583,1.662,510
3420693,Q24625,CITY,Juberri,Juberri,Andorra,AD,Sant Julià de Lòria,06,42.44,1.50666667,0
2987553,Q24371,CITY,L'Aldosa de Canillo,L'Aldosa de Canillo,Andorra,AD,Canillo,02,42.57777778,1.61944444,289
3467153,Q24540,CITY,L'Aldosa de la Massana,L'Aldosa de la Massana,Andorra,AD,La Massana,04,42.54391,1.52289,594
3852981,Q6455591,CITY,L'Armiana,L'Armiana,Andorra,AD,Canillo,02,42.53333333,1.56666667,0
3086756,Q24486,CITY,La Cortinada,La Cortinada,Andorra,AD,Ordino,05,42.57667,1.51773,845
3056764,Q2536296,CITY,La Margineda,La Margineda,Andorra,AD,Andorra la Vella,07,42.4859,1.49045,155
3264421,Q24447,CITY,Les Bons,Les Bons,Andorra,AD,Encamp,03,42.53333333,1.58333333,0
759,Q1050185,CITY,Les Escaldes,Les Escaldes,Andorra,AD,Escaldes-Engordany,08,42.5,1.53333333,15853
3383502,Q24483,CITY,Llorts,Llorts,Andorra,AD,Ordino,05,42.596389,1.526638,0
3299914,Q24622,CITY,Llumeneres,Llumeneres,Andorra,AD,Sant Julià de Lòria,06,42.4725,1.51111111,5
3280253,Q24390,CITY,Meritxell,Meritxell,Andorra,AD,Canillo,02,42.55416667,1.59055556,69
3326276,Q6896400,CITY,Molleres,Molleres,Andorra,AD,Canillo,02,42.55,1.58333333,0
3199570,Q24611,CITY,Nagol,Nagol,Andorra,AD,Sant Julià de Lòria,06,42.47111111,1.50333333,0
3300956,Q24558,CITY,Pal,Pal,Andorra,AD,La Massana,04,42.55,1.48333333,235
3495353,Q24415,CITY,Prats,Prats,Andorra,AD,Canillo,02,42.560397,1.593975,0
3323791,Q24392,CITY,Ransol,Ransol,Andorra,AD,Canillo,02,42.58333333,1.63333333,0
3077529,Q24597,CITY,Santa Coloma d'Andorra,Santa Coloma d'Andorra,Andorra,AD,Andorra la Vella,07,42.493897222,1.497683333,3002
3199670,Q24499,CITY,Segudet,Segudet,Andorra,AD,Ordino,05,42.55,1.53333333,0
3437048,Q24562,CITY,Sispony,Sispony,Andorra,AD,La Massana,04,42.53333333,1.51666667,833
2996424,Q24398,CITY,Soldeu,Soldeu,Andorra,AD,Canillo,02,42.576944444,1.667222222,622
3259911,Q24495,CITY,Sornàs,Sornàs,Andorra,AD,Ordino,05,42.56666667,1.53333333,0
3205272,Q24459,CITY,Vila,Vila,Andorra,AD,Encamp,03,42.5319,1.5656,1143
3333301,Q2544237,CITY,Xixerella,Xixerella,Andorra,AD,La Massana,04,42.55,1.48333,0
3363925,Q4540575,CITY,'Uraybi,'Uraybi,United Arab Emirates,AE,Emirate of Ras Al Khaimah,RK,25.783055555,55.979444444,0
3857091,Q4540406,CITY,Abadilah,Abadilah,United Arab Emirates,AE,Emirate of Fujairah,FU,25.45353,56.18991,0
659,Q1519,CITY,Abu Dhabi,Abu Dhabi,United Arab Emirates,AE,Emirate of Abu Dhabi,AZ,24.451111111,54.396944444,1483000
3222805,Q4682440,CITY,Adgat,Adgat,United Arab Emirates,AE,Emirate of Fujairah,FU,25.496666666,56.356388888,0
3396372,Q4682448,CITY,Adh Dharbaniyah,Adh Dharbaniyah,United Arab Emirates,AE,Emirate of Ras Al Khaimah,RK,25.783333333,55.933333333,0
3873326,Q4682473,CITY,Adhan,Adhan,United Arab Emirates,AE,Emirate of Ras Al Khaimah,RK,25.4638326,55.9947649,0
638,Q530171,CITY,Ajman,Ajman,United Arab Emirates,AE,Emirate of Ajman,AJ,25.399444444,55.479722222,490035
3253114,Q4700233,CITY,Akamiya,Akamiya,United Arab Emirates,AE,Emirate of Fujairah,FU,25.6,56.27,0
644,Q234600,CITY,Al Ain,Al Ain,United Arab Emirates,AE,Emirate of Abu Dhabi,AZ,24.2075,55.744722222,766936
3870485,Q56376594,CITY,Al Aqqah,Al Aqqah,United Arab Emirates,AE,Emirate of Fujairah,FU,25.4967,56.3564,0
3314170,Q4703526,CITY,Al Badiyah,Al Badiyah,United Arab Emirates,AE,Emirate of Fujairah,FU,25.431388888,56.348333333,0
3875351,Q131009147,CITY,Al Baqil,Al Baqil,United Arab Emirates,AE,Emirate of Fujairah,FU,25.614198,56.1591715,0
3872681,Q130527389,CITY,Al Dafain,Al Dafain,United Arab Emirates,AE,Emirate of Sharjah,SH,24.9648028,55.7795463,0
3856480,Q129391002,CITY,Al Ejili,Al Ejili,United Arab Emirates,AE,Emirate of Ras Al Khaimah,RK,25.04117,56.1512,0
3427649,Q4703799,CITY,Al Fahlayn,Al Fahlayn,United Arab Emirates,AE,Emirate of Ras Al Khaimah,RK,25.684166666,55.966666666,0
3599334,Q3501086,CITY,Al Garhoud,Al Garhoud,United Arab Emirates,AE,Emirate of Dubai,DU,25.228938888,55.326630555,19726
3407655,Q4703863,CITY,Al Ghabah,Al Ghabah,United Arab Emirates,AE,Emirate of Ras Al Khaimah,RK,26.048888888,56.153333333,0
3431003,Q4703865,CITY,Al Ghabam,Al Ghabam,United Arab Emirates,AE,Emirate of Ras Al Khaimah,RK,26.032777777,56.152222222,0
3276006,Q4703869,CITY,Al Ghashban,Al Ghashban,United Arab Emirates,AE,Emirate of Ras Al Khaimah,RK,26.0425,56.118611111,0
3872641,Q130526722,CITY,Al Ghizaimri,Al Ghizaimri,United Arab Emirates,AE,Emirate of Fujairah,FU,25.1493955,56.2406424,0
3874789,Q130752484,CITY,Al Ghunah,Al Ghunah,United Arab Emirates,AE,Emirate of Fujairah,FU,25.4145035,56.1871367,0
3210694,Q4703966,CITY,Al Hamidiyah,Al Hamidiyah,United Arab Emirates,AE,Emirate of Ajman,AJ,25.391666666,55.53,27000
3291109,Q4703976,CITY,Al Hamraniyah,Al Hamraniyah,United Arab Emirates,AE,Emirate of Ras Al Khaimah,RK,25.611388888,55.900277777,0
3355708,Q4703978,CITY,Al Hamriyah,Al Hamriyah,United Arab Emirates,AE,Emirate of Sharjah,SH,25.480833333,55.498333333,3297
3874273,Q130644823,CITY,Al Hayilah,Al Hayilah,United Arab Emirates,AE,Emirate of Ras Al Khaimah,RK,25.7980557,56.1024195,0
3438491,Q4704008,CITY,Al Hayl,Al Hayl,United Arab Emirates,AE,Emirate of Fujairah,FU,25.0925302,56.2438916,0
3273693,Q4704014,CITY,Al Hayr,Al Hayr,United Arab Emirates,AE,Emirate of Ras Al Khaimah,RK,25.978611111,56.085277777,0
3411380,Q4704012,CITY,Al Heera,Al Heera,United Arab Emirates,AE,Emirate of Sharjah,SH,25.381388888,55.403055555,0
3873093,Q130554593,CITY,Al Hiyar,Al Hiyar,United Arab Emirates,AE,Emirate of Abu Dhabi,AZ,24.5888856,55.7441575,7610
3337513,Q4704063,CITY,Al Hulaylah,Al Hulaylah,United Arab Emirates,AE,Emirate of Ras Al Khaimah,RK,25.885555555,56.052222222,0
3381620,Q4704101,CITY,Al Jaddah,Al Jaddah,United Arab Emirates,AE,Emirate of Ras Al Khaimah,RK,25.996111111,56.084166666,0
3304561,Q4704216,CITY,Al Khan,Al Khan,United Arab Emirates,AE,Emirate of Sharjah,SH,25.331944444,55.358888888,0
3378688,Q4704220,CITY,Al Khari,Al Khari,United Arab Emirates,AE,Emirate of Ras Al Khaimah,RK,25.096388888,56.026388888,0
3275167,Q4704223,CITY,Al Khashfah,Al Khashfah,United Arab Emirates,AE,Emirate of Ras Al Khaimah,RK,26.028333333,56.139444444,0
3871686,Q55603483,CITY,Al Madam,Al Madam,United Arab Emirates,AE,Emirate of Sharjah,SH,24.96138889,55.79027778,11120
3301004,Q4704352,CITY,Al Mahamm,Al Mahamm,United Arab Emirates,AE,Emirate of Ras Al Khaimah,RK,25.675,55.990277777,0
3515514,Q4117373,ADM2,Al Mamzar,Al Mamzar,United Arab Emirates,AE,Emirate of Dubai,DU,25.309469444,55.342811111,0
3872340,Q130518454,CITY,Al Manzafah,Al Manzafah,United Arab Emirates,AE,Emirate of Fujairah,FU,25.1054266,56.1960864,0
3354245,Q4704399,CITY,Al Masafirah,Al Masafirah,United Arab Emirates,AE,Emirate of Ras Al Khaimah,RK,25.683333333,55.95,0
3378473,Q4704405,CITY,Al Mataf,Al Mataf,United Arab Emirates,AE,Emirate of Ras Al Khaimah,RK,25.833333333,55.983333333,0
3330168,Q4704533,CITY,Al Naslah,Al Naslah,United Arab Emirates,AE,Emirate of Ras Al Khaimah,RK,24.866096,56.2606302,0
3331390,Q4704646,CITY,Al Qir,Al Qir,United Arab Emirates,AE,Emirate of Ras Al Khaimah,RK,26.036388888,56.097777777,0
3244005,Q4704658,CITY,Al Qurayyah,Al Qurayyah,United Arab Emirates,AE,Emirate of Fujairah,FU,25.239444444,56.360555555,0
3289452,Q4704670,CITY,Al Quwayz,Al Quwayz,United Arab Emirates,AE,Emirate of Ras Al Khaimah,RK,25.774722222,55.969722222,0
3196047,Q4704913,CITY,Al Usayli,Al Usayli,United Arab Emirates,AE,Emirate of Ras Al Khaimah,RK,25.616666666,56.0,0
3843593,Q126811512,CITY,Al Yafnah,Al Yafnah,United Arab Emirates,AE,Emirate of Ras Al Khaimah,RK,25.7345342,56.0991996,0
3718287,Q4783046,CITY,Ar Rafa'ah,Ar Rafa'ah,United Arab Emirates,AE,Emirate of Umm Al Quwain,UQ,25.615277777,55.702777777,0
3874960,Q130778752,CITY,Ar Riwedah,Ar Riwedah,United Arab Emirates,AE,Emirate of Fujairah,FU,25.5067122,56.0820438,0
3362794,Q2485175,CITY,Ar-Rams,Ar-Rams,United Arab Emirates,AE,Emirate of Ras Al Khaimah,RK,25.878888888,56.023611111,0
3872685,Q130530980,CITY,As Saman,As Saman,United Arab Emirates,AE,Emirate of Sharjah,SH,25.2325576,55.8162727,0
3351271,Q4803019,CITY,As Sur,As Sur,United Arab Emirates,AE,Emirate of Ras Al Khaimah,RK,25.779166666,55.994722222,0
3875035,Q130901662,CITY,Ashashah,Ashashah,United Arab Emirates,AE,Emirate of Fujairah,FU,25.4598022,56.1671803,0
3840109,Q125607594,CITY,Asimah,Asimah,United Arab Emirates,AE,Emirate of Ras Al Khaimah,RK,25.40339,56.14551,0
3375942,Q4813182,CITY,Athabat,Athabat,United Arab Emirates,AE,Emirate of Ras Al Khaimah,RK,25.161111111,56.096388888,0
3849088,Q127425805,CITY,Aţ Ţawyēn,Aţ Ţawyēn,United Arab Emirates,AE,Emirate of Fujairah,FU,25.553532,56.0768012,0
3849162,Q126727648,CITY,Baighit,Baighit,United Arab Emirates,AE,Emirate of Ras Al Khaimah,RK,25.9293803,56.1538078,5
3832837,Q4857773,CITY,Baqal,Baqal,United Arab Emirates,AE,Emirate of Ras Al Khaimah,RK,25.689444444,56.088333333,0
3264797,Q4904192,CITY,Bidiyah,Bidiyah,United Arab Emirates,AE,Emirate of Ras Al Khaimah,RK,25.675,55.971944444,0
3844792,Q127611052,CITY,Buaiba,Buaiba,United Arab Emirates,AE,Emirate of Ras Al Khaimah,RK,25.7156777,56.1260907,0
3874969,Q130792936,CITY,Dab‘ah,Dab‘ah,United Arab Emirates,AE,Emirate of Fujairah,FU,25.4948732,56.1762705,0
3385163,Q3492833,CITY,Dadna,Dadna,United Arab Emirates,AE,Emirate of Fujairah,FU,25.5225,56.355555555,0
3826995,Q116867858,CITY,Dafalas,Dafalas,United Arab Emirates,AE,Emirate of Ras Al Khaimah,RK,25.95167,56.14944,0
3337523,Q3695961,CITY,Daftah,Daftah,United Arab Emirates,AE,Emirate of Ras Al Khaimah,RK,25.274166666,56.183333333,0
3832862,Q5276392,CITY,Dahan,Dahan,United Arab Emirates,AE,Emirate of Ras Al Khaimah,RK,25.7738,55.9254,0
3842722,Q125956154,CITY,Danam,Danam,United Arab Emirates,AE,Emirate of Ras Al Khaimah,RK,25.753526,56.1351963,0
3875142,Q5222043,CITY,Darah,Darah,United Arab Emirates,AE,Emirate of Ras Al Khaimah,RK,25.10083,56.05722,0
3402153,Q5243010,CITY,Dayah,Dayah,United Arab Emirates,AE,Emirate of Ras Al Khaimah,RK,25.883333333,56.05,0
3338264,Q5243267,CITY,Daynah,Daynah,United Arab Emirates,AE,Emirate of Ras Al Khaimah,RK,25.043888888,56.011111111,0
3844020,Q126895248,CITY,Deira Al-Tamba,Deira Al-Tamba,United Arab Emirates,AE,Emirate of Fujairah,FU,25.6288596,56.1293701,0
3367663,Q5268669,CITY,Dhad al Arab,Dhad al Arab,United Arab Emirates,AE,Emirate of Ras Al Khaimah,RK,25.616666666,55.85,0
519,Q3492826,CITY,Dhaid,Dhaid,United Arab Emirates,AE,Emirate of Sharjah,SH,25.283333333,55.883333333,20165
3872205,Q3696182,CITY,Dibba Al-Fujairah,Dibba Al-Fujairah,United Arab Emirates,AE,Emirate of Fujairah,FU,25.616667,56.266667,41017
571,Q6742405,CITY,Dibba Al-Hisn,Dibba Al-Hisn,United Arab Emirates,AE,Emirate of Sharjah,SH,25.608888888,56.275833333,26395
3267816,Q5275243,CITY,Difan,Difan,United Arab Emirates,AE,Emirate of Ras Al Khaimah,RK,25.785833333,55.943055555,0
3368895,Q5280142,CITY,Diqdaqah,Diqdaqah,United Arab Emirates,AE,Emirate of Ras Al Khaimah,RK,25.6693136,55.9653814,0
3473851,Q5281911,CITY,Discovery Gardens,Discovery Gardens,United Arab Emirates,AE,Emirate of Dubai,DU,25.03739444,55.14484444,0
3519123,Q612,CITY,Dubai,Dubai,United Arab Emirates,AE,Emirate of Dubai,DU,25.269722222,55.309444444,3564931
3671889,Q1262899,ADM2,Dubai Internet City,Dubai Internet City,United Arab Emirates,AE,Emirate of Dubai,DU,25.095,55.16,24000
3872582,Q130519019,CITY,Esfai,Esfai,United Arab Emirates,AE,Emirate of Ras Al Khaimah,RK,25.1101015,56.1414961,0
3243207,Q5427529,CITY,Fa'y,Fa'y,United Arab Emirates,AE,Emirate of Ras Al Khaimah,RK,25.170555555,56.101388888,0
3339643,Q5431628,CITY,Falaj Al-Mu'alla,Falaj Al-Mu'alla,United Arab Emirates,AE,Emirate of Umm Al Quwain,UQ,25.353055555,55.853333333,0
3442909,Q15217438,CITY,Fashrah,Fashrah,United Arab Emirates,AE,Emirate of Ras Al Khaimah,RK,24.88,56.20638889,0
3209291,Q5439120,CITY,Fayyad,Fayyad,United Arab Emirates,AE,Emirate of Ras Al Khaimah,RK,24.958055555,56.203333333,0
3323978,Q5555170,CITY,Ghadf,Ghadf,United Arab Emirates,AE,Emirate of Ras Al Khaimah,RK,25.283888888,56.173055555,0
3430942,Q5555217,CITY,Ghaghah,Ghaghah,United Arab Emirates,AE,Emirate of Ras Al Khaimah,RK,25.766666666,56.066666666,0
3254256,Q5555284,CITY,Ghalilah,Ghalilah,United Arab Emirates,AE,Emirate of Ras Al Khaimah,RK,25.9975,56.074444444,0
3384534,Q5555307,CITY,Ghamarah,Ghamarah,United Arab Emirates,AE,Emirate of Ras Al Khaimah,RK,25.294166666,56.169722222,0
3304532,Q5555978,CITY,Ghayl,Ghayl,United Arab Emirates,AE,Emirate of Ras Al Khaimah,RK,25.4,56.066666666,0
3212791,Q5557517,CITY,Ghubb,Ghubb,United Arab Emirates,AE,Emirate of Ras Al Khaimah,RK,25.808888888,55.990833333,0
3656554,Q5557520,CITY,Ghubbat Khawrah,Ghubbat Khawrah,United Arab Emirates,AE,Emirate of Ras Al Khaimah,RK,26.042777777,56.135,0
3201517,Q5592592,CITY,Gragrah,Gragrah,United Arab Emirates,AE,Emirate of Ras Al Khaimah,RK,25.464722222,55.984722222,0
3271152,Q5636743,CITY,Habhab,Habhab,United Arab Emirates,AE,Emirate of Fujairah,FU,25.606666666,56.05,0
3251552,Q5638302,CITY,Hafarah,Hafarah,United Arab Emirates,AE,Emirate of Fujairah,FU,25.033333333,56.316666666,0
3203542,Q15222648,CITY,Ham Ham,Ham Ham,United Arab Emirates,AE,Emirate of Ras Al Khaimah,RK,25.68611111,55.96388889,0
3313896,Q15222974,CITY,Haqil,Haqil,United Arab Emirates,AE,Emirate of Fujairah,FU,25.44611111,56.35166667,0
3227279,Q5654283,CITY,Harat Al Awalah,Harat Al Awalah,United Arab Emirates,AE,Emirate of Ras Al Khaimah,RK,26.016388888,56.1325,0
3883532,Q5663838,CITY,Harrah,Harrah,United Arab Emirates,AE,Emirate of Ras Al Khaimah,RK,24.99,56.217222222,0
3224195,Q5678651,CITY,Hasat al Bidiyah,Hasat al Bidiyah,United Arab Emirates,AE,Emirate of Sharjah,SH,25.320555555,55.974444444,0
3430534,Q15223291,CITY,Hatiyah,Hatiyah,United Arab Emirates,AE,Emirate of Ras Al Khaimah,RK,25.403774,56.1445377,0
3857682,Q770233,CITY,Hatta,Hatta,United Arab Emirates,AE,Emirate of Dubai,DU,24.80073,56.12726,15324
3206411,Q5872928,CITY,Hiyawah,Hiyawah,United Arab Emirates,AE,Emirate of Sharjah,SH,25.36,56.348888888,0
3270582,Q15224279,CITY,Hizayib az Zanah,Hizayib az Zanah,United Arab Emirates,AE,Emirate of Sharjah,SH,25.31583333,55.41194444,0
3338947,Q15226502,CITY,Hudaybah,Hudaybah,United Arab Emirates,AE,Emirate of Ras Al Khaimah,RK,25.79638889,55.98277778,0
3284434,Q5951338,CITY,Huwaylat,Huwaylat,United Arab Emirates,AE,Emirate of Ras Al Khaimah,RK,24.877222222,56.173333333,0
3874979,Q130780705,CITY,Jareef,Jareef,United Arab Emirates,AE,Emirate of Fujairah,FU,25.5148721,56.0724894,0
3446998,Q1686086,CITY,Jebel Ali Village,Jebel Ali Village,United Arab Emirates,AE,Emirate of Dubai,DU,25.034936111,55.117052777,0
3387938,Q1142971,CITY,Jumeirah,Jumeirah,United Arab Emirates,AE,Emirate of Dubai,DU,25.210069444,55.248961111,39080
3872905,Q2204078,CITY,Kalba,Kalba,United Arab Emirates,AE,Emirate of Sharjah,SH,25.0513,56.35422,54876
3439777,Q6398765,CITY,Khabakhib,Khabakhib,United Arab Emirates,AE,Emirate of Ras Al Khaimah,RK,25.438055555,56.098055555,0
3212930,Q6400751,CITY,Kharran,Kharran,United Arab Emirates,AE,Emirate of Ras Al Khaimah,RK,25.713055555,55.969166666,0
3418005,Q6400949,CITY,Khatt,Khatt,United Arab Emirates,AE,Emirate of Ras Al Khaimah,RK,25.624166666,56.016666666,0
3872941,Q130547468,CITY,Khawr Kalbā,Khawr Kalbā,United Arab Emirates,AE,Emirate of Sharjah,SH,25.0371239,56.3623119,0
3249032,Q6401069,CITY,Khawr Khuwayr,Khawr Khuwayr,United Arab Emirates,AE,Emirate of Ras Al Khaimah,RK,25.967222222,56.054444444,0
3347612,Q6401115,CITY,Khazam,Khazam,United Arab Emirates,AE,Emirate of Ras Al Khaimah,RK,25.765,55.934166666,0
124,Q764279,CITY,Khor Fakkan,Khor Fakkan,United Arab Emirates,AE,Emirate of Sharjah,SH,25.339166666,56.356111111,39151
3224635,Q6506005,CITY,Lazimah,Lazimah,United Arab Emirates,AE,Emirate of Umm Al Quwain,UQ,25.586111111,55.563333333,0
3386786,Q6702774,CITY,Lulayyah,Lulayyah,United Arab Emirates,AE,Emirate of Sharjah,SH,25.390555555,56.354722222,0
3311998,Q6730445,CITY,Maghribiyah,Maghribiyah,United Arab Emirates,AE,Emirate of Ras Al Khaimah,RK,25.2,56.05,0
3823959,Q124811186,CITY,Mak Sikek,Mak Sikek,United Arab Emirates,AE,Emirate of Ras Al Khaimah,RK,25.7605,56.11714,0
3293652,Q1888663,CITY,Manama,Manama,United Arab Emirates,AE,Emirate of Ajman,AJ,25.33,56.021944444,5823
3281237,Q15245346,CITY,Manqashah,Manqashah,United Arab Emirates,AE,Emirate of Ras Al Khaimah,RK,26.035,56.14861111,0
3872548,Q60743083,CITY,Margham,Margham,United Arab Emirates,AE,Emirate of Dubai,DU,24.899518,55.6254536,930
3207640,Q6760852,CITY,Marhamid,Marhamid,United Arab Emirates,AE,Emirate of Ras Al Khaimah,RK,25.095,56.027222222,0
3331034,Q3367129,CITY,Masafi,Masafi,United Arab Emirates,AE,Emirate of Ras Al Khaimah,RK,25.313333333,56.162777777,0
3227403,Q6782320,CITY,Masah,Masah,United Arab Emirates,AE,Emirate of Fujairah,FU,25.301388888,56.163611111,0
3211995,Q3133042,CITY,Masfut,Masfut,United Arab Emirates,AE,Emirate of Ajman,AJ,24.81089,56.10657,8988
3246810,Q6794447,CITY,Mawrid,Mawrid,United Arab Emirates,AE,Emirate of Ras Al Khaimah,RK,25.4325,56.115,0
3298090,Q6797009,CITY,Maydaq,Maydaq,United Arab Emirates,AE,Emirate of Fujairah,FU,25.338888888,56.103888888,0
3290270,Q6864883,CITY,Minha,Minha,United Arab Emirates,AE,Emirate of Ras Al Khaimah,RK,25.158333333,56.081111111,0
3227181,Q6930670,CITY,Muaifi,Muaifi,United Arab Emirates,AE,Emirate of Sharjah,SH,25.361666666,56.344722222,0
3871640,Q60785373,CITY,Mudayrah,Mudayrah,United Arab Emirates,AE,Emirate of Ajman,AJ,24.830655,56.0359823,0
3234951,Q6933511,CITY,Mukhtaraqah,Mukhtaraqah,United Arab Emirates,AE,Emirate of Fujairah,FU,25.541111111,56.130555555,0
3266991,Q6937491,CITY,Muraytah,Muraytah,United Arab Emirates,AE,Emirate of Ras Al Khaimah,RK,25.404166666,56.061944444,0
300,Q6401643,CITY,Murbah,Murbah,United Arab Emirates,AE,Emirate of Sharjah,SH,25.280555555,56.364166666,2000
3299036,Q6939057,CITY,Murrah,Murrah,United Arab Emirates,AE,Emirate of Fujairah,FU,25.194722222,56.216944444,0
3714175,Q117287828,CITY,Musaibat,Musaibat,United Arab Emirates,AE,Emirate of Ras Al Khaimah,RK,25.91432,56.15549,2
879,Q21735810,CITY,Muzayri‘,Muzayri‘,United Arab Emirates,AE,Emirate of Abu Dhabi,AZ,23.143611111,53.788055555,10000
3382673,Q252275,CITY,Nahwa,Nahwa,United Arab Emirates,AE,Emirate of Sharjah,SH,25.273333,56.285167,0
3210637,Q4783073,CITY,Najd Al Miqsar,Najd Al Miqsar,United Arab Emirates,AE,Emirate of Sharjah,SH,25.346666666,56.316666666,0
3232374,Q7265694,CITY,Qabas,Qabas,United Arab Emirates,AE,Emirate of Ras Al Khaimah,RK,26.035555555,56.108333333,0
3822215,Q124805722,CITY,Qada'ah,Qada'ah,United Arab Emirates,AE,Emirate of Ras Al Khaimah,RK,25.75044,56.14647,0
3872588,Q6404586,CITY,Qadfa,Qadfa,United Arab Emirates,AE,Emirate of Fujairah,FU,25.2915459,56.363518,0
3258577,Q7265804,CITY,Qaf'ah,Qaf'ah,United Arab Emirates,AE,Emirate of Ras Al Khaimah,RK,26.038055555,56.108611111,0
3314884,Q7266748,CITY,Qarat ad Dulm,Qarat ad Dulm,United Arab Emirates,AE,Emirate of Ras Al Khaimah,RK,25.860277777,56.025,0
3640608,Q7272958,CITY,Qurm,Qurm,United Arab Emirates,AE,Emirate of Ras Al Khaimah,RK,25.911388888,56.064166666,0
3408036,Q7272983,CITY,Qusaydat,Qusaydat,United Arab Emirates,AE,Emirate of Ras Al Khaimah,RK,25.763611111,55.975555555,0
3872722,Q130526495,CITY,Rafadah,Rafadah,United Arab Emirates,AE,Emirate of Sharjah,SH,24.9107767,55.7391018,0
3428684,Q7282405,CITY,Rafaq,Rafaq,United Arab Emirates,AE,Emirate of Ras Al Khaimah,RK,24.875,56.245555555,0
3365210,Q7289704,CITY,Ramlah,Ramlah,United Arab Emirates,AE,Emirate of Fujairah,FU,25.361666666,56.043611111,0
3705220,Q117304338,CITY,Ras Ash,Ras Ash,United Arab Emirates,AE,Emirate of Ras Al Khaimah,RK,25.96779,56.16786,0
3418785,Q7339032,CITY,Riyamah,Riyamah,United Arab Emirates,AE,Emirate of Fujairah,FU,25.546111111,56.058888888,0
3256658,Q7378588,CITY,Rughaylat,Rughaylat,United Arab Emirates,AE,Emirate of Fujairah,FU,25.116666666,56.35,0
413,Q1023786,CITY,Ruwais,Ruwais,United Arab Emirates,AE,Emirate of Abu Dhabi,AZ,24.11685491,52.73301956,25000
3836918,Q125255308,CITY,Sabah,Sabah,United Arab Emirates,AE,Emirate of Ras Al Khaimah,RK,25.75904,56.07612,0
3406907,Q7404511,CITY,Salihiyah,Salihiyah,United Arab Emirates,AE,Emirate of Ras Al Khaimah,RK,25.720555555,55.988055555,0
3831755,Q124822739,CITY,Samarat,Samarat,United Arab Emirates,AE,Emirate of Ras Al Khaimah,RK,25.68907,56.13699,0
3208077,Q7421197,CITY,Saqamqam,Saqamqam,United Arab Emirates,AE,Emirate of Fujairah,FU,25.173611111,56.333611111,0
3363798,Q7429232,CITY,Sayh as Saqlah,Sayh as Saqlah,United Arab Emirates,AE,Emirate of Ras Al Khaimah,RK,24.883333333,56.166666666,0
3867373,Q3696195,CITY,Sha'am,Sha'am,United Arab Emirates,AE,Emirate of Ras Al Khaimah,RK,26.024444444,56.083888888,1550
3875598,Q131136787,CITY,Sha'biyyat Al Khawālid,Sha'biyyat Al Khawālid,United Arab Emirates,AE,Emirate of Sharjah,SH,24.9765695,55.8378368,0
3397719,Q6863289,CITY,Sha'biyyat Al Qilē'ī,Sha'biyyat Al Qilē'ī,United Arab Emirates,AE,Emirate of Sharjah,SH,24.94256,56.21074,0
3258626,Q7272910,CITY,Sha'biyyat Al Qor,Sha'biyyat Al Qor,United Arab Emirates,AE,Emirate of Ras Al Khaimah,RK,24.911388888,56.098611111,0
3874070,Q130621334,CITY,Sha'biyyat Milāḩ,Sha'biyyat Milāḩ,United Arab Emirates,AE,Emirate of Ras Al Khaimah,RK,24.915553,56.1201516,0
3875609,Q131128320,CITY,Sha'biyyat Sikhе̄bar,Sha'biyyat Sikhе̄bar,United Arab Emirates,AE,Emirate of Ras Al Khaimah,RK,24.926814,56.1692732,0
3872703,Q130525265,CITY,Sha'biyyāt Rāfāq,Sha'biyyāt Rāfāq,United Arab Emirates,AE,Emirate of Ras Al Khaimah,RK,24.9909709,56.1207985,0
3223837,Q7460007,CITY,Shabakah,Shabakah,United Arab Emirates,AE,Emirate of Ras Al Khaimah,RK,25.033333333,56.0,0
3719610,Q96414180,CITY,Shah,Shah,United Arab Emirates,AE,Emirate of Ras Al Khaimah,RK,25.89861,56.12833,0
3344085,Q7461462,CITY,Shahawat,Shahawat,United Arab Emirates,AE,Emirate of Ras Al Khaimah,RK,25.966666666,56.083333333,0
3714609,Q117352121,CITY,Shairi,Shairi,United Arab Emirates,AE,Emirate of Ras Al Khaimah,RK,25.70062,56.12278,6
3873449,Q7489755,CITY,Shariyah,Shariyah,United Arab Emirates,AE,Emirate of Ajman,AJ,24.81512,56.0986,0
900,Q289693,CITY,Sharjah,Sharjah,United Arab Emirates,AE,Emirate of Sharjah,SH,25.3375,55.411944444,1247749
3875068,Q130901434,CITY,Sharmatah,Sharmatah,United Arab Emirates,AE,Emirate of Fujairah,FU,25.4610647,56.1765137,0
3342963,Q7490509,CITY,Sharyat,Sharyat,United Arab Emirates,AE,Emirate of Ras Al Khaimah,RK,26.043055555,56.108055555,0
3391965,Q7491258,CITY,Shawkah,Shawkah,United Arab Emirates,AE,Emirate of Ras Al Khaimah,RK,25.1,56.033333333,0
3333496,Q7959245,CITY,Shi,Shi,United Arab Emirates,AE,Emirate of Sharjah,SH,25.35,56.316666666,0
3198024,Q7496816,CITY,Shimal,Shimal,United Arab Emirates,AE,Emirate of Ras Al Khaimah,RK,25.818055555,56.031666666,0
3226301,Q12219376,CITY,Shis,Shis,United Arab Emirates,AE,Emirate of Sharjah,SH,25.290555555,56.245555555,0
3850830,Q102179103,ADM2,Shumayliyah,Shumayliyah,United Arab Emirates,AE,Emirate of Sharjah,SH,25.33333,56.33333,0
3822620,Q124805631,CITY,Silay Al Khatami,Silay Al Khatami,United Arab Emirates,AE,Emirate of Ras Al Khaimah,RK,25.74125,56.12992,0
3871617,Q130416626,CITY,Subaygha,Subaygha,United Arab Emirates,AE,Emirate of Ajman,AJ,24.876963,55.9889741,0
3370568,Q7634460,CITY,Sufayri,Sufayri,United Arab Emirates,AE,Emirate of Dubai,DU,24.813888888,56.142222222,0
3439128,Q7635234,CITY,Suhaylah,Suhaylah,United Arab Emirates,AE,Emirate of Dubai,DU,24.8081236,56.1825798,403
3396045,Q7686023,CITY,Tarif Kalba,Tarif Kalba,United Arab Emirates,AE,Emirate of Fujairah,FU,25.068611111,56.334444444,0
3848828,Q104870093,CITY,Tayyibah,Tayyibah,United Arab Emirates,AE,Emirate of Fujairah,FU,25.41228,56.17075,0
3872849,Q130535254,CITY,Thoban,Thoban,United Arab Emirates,AE,Emirate of Fujairah,FU,25.3034265,56.0302106,0
3212226,Q7958918,CITY,Wad Wid,Wad Wid,United Arab Emirates,AE,Emirate of Ras Al Khaimah,RK,25.633333333,56.018611111,0
3313250,Q4117484,CITY,Warisan,Warisan,United Arab Emirates,AE,Emirate of Dubai,DU,25.162686111,55.422591666,108759
3395640,Q7975860,CITY,Wayb Hawf,Wayb Hawf,United Arab Emirates,AE,Emirate of Ras Al Khaimah,RK,26.028888888,56.121111111,0
3400916,Q8053665,CITY,Yinainir,Yinainir,United Arab Emirates,AE,Emirate of Ras Al Khaimah,RK,25.908055555,56.17,0
3392850,Q8053668,CITY,Yinas,Yinas,United Arab Emirates,AE,Emirate of Ras Al Khaimah,RK,25.741388888,56.130277777,0
3841146,Q5208819,CITY,Zahir al Ya'ad,Zahir al Ya'ad,United Arab Emirates,AE,Emirate of Fujairah,FU,25.533333333,56.154722222,0
3848922,Q126911558,CITY,Zanhah,Zanhah,United Arab Emirates,AE,Emirate of Fujairah,FU,25.579163,56.1850613,0
3867218,Q8074914,CITY,Zubarah,Zubarah,United Arab Emirates,AE,Emirate of Fujairah,FU,25.4025,56.361388888,0
3324790,Q4662874,CITY,Ab Bala,Ab Bala,Afghanistan,AF,Bamyan,BAM,34.716666666,67.733333333,0
3386644,Q3694483,ADM2,Ab Band District,Ab Band District,Afghanistan,AF,Ghazni,GHA,32.983,67.967,0
3195090,Q2574638,CITY,Ab Bazan,Ab Bazan,Afghanistan,AF,Badakhshan,BDS,36.933333333,69.95,0
2988260,Q3338123,CITY,Ab Gaj,Ab Gaj,Afghanistan,AF,Badakhshan,BDS,36.983055555,72.7,487
3339608,Q2572213,ADM2,Ab Kamari,Ab Kamari,Afghanistan,AF,Badghis,BDG,34.925,62.901666666,0
3358372,Q4663017,CITY,Ab Khvorak-e Bala,Ab Khvorak-e Bala,Afghanistan,AF,Samangan,SAM,35.5,67.73333333,0
3268623,Q4663018,CITY,Ab Khvorak-e Pa'in,Ab Khvorak-e Pa'in,Afghanistan,AF,Samangan,SAM,35.50444444,67.75972222,0
3371810,Q4663019,CITY,Ab Kolok,Ab Kolok,Afghanistan,AF,Jowzjan,JOW,37.05972222,66.04333333,0
3258778,Q4663036,CITY,Ab Mazar,Ab Mazar,Afghanistan,AF,Herat Province,HER,34.95777778,61.53861111,0
3249300,Q4662846,CITY,Ab-e Barik-e Qowdi,Ab-e Barik-e Qowdi,Afghanistan,AF,Badghis,BDG,34.905555555,62.719722222,0
3321167,Q4667522,CITY,Abi Jan,Abi Jan,Afghanistan,AF,Helmand,HEL,31.53194444,64.35694444,0
3228129,Q1650529,ADM2,Achin,Achin,Afghanistan,AF,Nangarhar,NAN,34.0894,70.683,0
3443639,Q4682908,CITY,Adineh Masjed,Adineh Masjed,Afghanistan,AF,Balkh,BAL,36.894444444,66.702777777,0
3406810,Q4684698,CITY,Adraskan,Adraskan,Afghanistan,AF,Herat Province,HER,33.6425,62.2672,0
3301438,Q2714271,ADM2,Adraskan District,Adraskan District,Afghanistan,AF,Herat Province,HER,33.705277777,61.995555555,0
3386381,Q4694949,CITY,Ahangaran,Ahangaran,Afghanistan,AF,Baghlan,BGL,35.6139,69.4917,0
3198316,Q3918406,ADM2,Ahmadabad District,Ahmadabad District,Afghanistan,AF,Paktia Zurmat,PIA,33.773888888,69.339722222,0
3240835,Q4696380,CITY,Ahtaj,Ahtaj,Afghanistan,AF,Parwan,PAR,35.03333333,69.25,0
3223788,Q2674014,ADM2,Ajristan District,Ajristan District,Afghanistan,AF,Ghazni,GHA,33.466962,67.238846,0
3319022,Q4700789,CITY,Akhshay,Akhshay,Afghanistan,AF,Bamyan,BAM,34.957777777,67.608333333,0
3382471,Q2830672,ADM2,Alasay,Alasay,Afghanistan,AF,Kapisa,KAP,34.925555555,69.809166666,0
3366209,Q4708417,CITY,Alasay,Alasay,Afghanistan,AF,Kapisa,KAP,34.8958,69.7208,0
3347217,Q2123756,ADM2,Ali Abad,Ali Abad,Afghanistan,AF,Kunduz,KDZ,36.53,68.877777777,0
3348637,Q1229725,ADM2,Alingar,Alingar,Afghanistan,AF,Laghman,LAG,34.8347,70.3603,0
3672921,Q4726960,CITY,Aliser,Aliser,Afghanistan,AF,Khost,KHO,33.4658,70.0911,0
3422536,Q4726991,ADM2,Alishing,Alishing,Afghanistan,AF,Laghman,LAG,34.7044,70.1539,0
3313547,Q4727726,CITY,Alkozai,Alkozai,Afghanistan,AF,Kandahar,KAN,31.51666667,65.5,0
3311911,Q3694490,ADM2,Almar,Almar,Afghanistan,AF,Faryab,FYB,35.8464,64.5333,0
3288697,Q4733866,CITY,Almoghul,Almoghul,Afghanistan,AF,Balkh,BAL,36.033888888,66.637777777,0
3318692,Q4748613,CITY,Amrakh,Amrakh,Afghanistan,AF,Balkh,BAL,35.883333333,66.7,0
3344645,Q4750544,ADM2,Anaba,Anaba,Afghanistan,AF,Panjshir,PAN,35.223888888,69.405277777,0
3297891,Q1032484,ADM2,Anar Dara District,Anar Dara District,Afghanistan,AF,Farah,FRA,32.7688,61.677246,0
3294936,Q3694476,ADM2,Andar District,Andar District,Afghanistan,AF,Ghazni,GHA,33.318121,68.450131,0
3218278,Q2376379,ADM2,Andarab District,Andarab District,Afghanistan,AF,Baghlan,BGL,35.628333333,69.177222222,120642
439,Q1054127,CITY,Andkhoy,Andkhoy,Afghanistan,AF,Faryab,FYB,36.95,65.116666666,39730
3457115,Q13217328,ADM2,Andkhoy,Andkhoy,Afghanistan,AF,Faryab,FYB,36.95,65.11666667,0
3274512,Q4754644,CITY,Andowj,Andowj,Afghanistan,AF,Badakhshan,BDS,37.016666666,71.433333333,0
3482796,Q3516788,CITY,Angoor Ada,Angoor Ada,Afghanistan,AF,Baghlan,BGL,32.515555555,69.2825,0
3262020,Q4765892,CITY,Anjuman,Anjuman,Afghanistan,AF,Badakhshan,BDS,35.883333333,70.416666666,0
3267217,Q4777965,CITY,Anvah-ye Kalan,Anvah-ye Kalan,Afghanistan,AF,Bamyan,BAM,34.983333333,67.933333333,0
3028777,Q21764905,CITY,Anār Darah,Anār Darah,Afghanistan,AF,Farah,FRA,32.758611111,61.653888888,10023
3394931,Q4782385,CITY,Aq Gonbaz,Aq Gonbaz,Afghanistan,AF,Samangan,SAM,36.51,68.09611111,0
3343381,Q3288584,CITY,Aq Kupruk,Aq Kupruk,Afghanistan,AF,Balkh,BAL,36.083333333,66.833333333,0
3442484,Q4782414,CITY,Aq Robat,Aq Robat,Afghanistan,AF,Bamyan,BAM,34.933333333,67.65,0
291,Q2246526,CITY,Aqcha,Aqcha,Afghanistan,AF,Jowzjan,JOW,36.921352,66.192627,29380
3224068,Q3694472,ADM2,Aqcha,Aqcha,Afghanistan,AF,Jowzjan,JOW,36.904166666,66.208055555,0
3357481,Q4783832,CITY,Arakht,Arakht,Afghanistan,AF,Badakhshan,BDS,37.366666666,71.416666666,0
3443396,Q4784117,CITY,Aranji,Aranji,Afghanistan,AF,Balkh,BAL,37.2975,66.517222222,0
3220136,Q4784241,CITY,Araq-e `Olya,Araq-e `Olya,Afghanistan,AF,Bamyan,BAM,34.816666666,68.05,0
3351263,Q2217943,ADM2,Archi,Archi,Afghanistan,AF,Kunduz,KDZ,36.963611111,69.157222222,0
3313181,Q4789166,CITY,Arg-e Zari,Arg-e Zari,Afghanistan,AF,Bamyan,BAM,34.666666666,66.883333333,0
3326544,Q4789185,ADM2,Argahandab District,Argahandab District,Afghanistan,AF,Zabul,ZAB,32.12972222,66.92805556,0
3514312,Q1920624,CITY,Arghandab District,Arghandab District,Afghanistan,AF,Kandahar,KAN,31.654722222,65.649444444,54000
3396952,Q4789540,CITY,Arghandakan,Arghandakan,Afghanistan,AF,Badakhshan,BDS,36.840555555,70.303055555,0
3408811,Q2669827,ADM2,Arghanj Khwa,Arghanj Khwa,Afghanistan,AF,Badakhshan,BDS,36.95,70.116666666,18201
3235039,Q512921,ADM2,Arghistan District,Arghistan District,Afghanistan,AF,Kandahar,KAN,31.520833333,66.554166666,0
3351578,Q2670898,ADM2,Argo,Argo,Afghanistan,AF,Badakhshan,BDS,37.11388889,70.525,0
3420429,Q4790585,CITY,Arigh Batur,Arigh Batur,Afghanistan,AF,Balkh,BAL,37.348611111,66.961666666,0
3203634,Q4801171,CITY,Artin Jelow,Artin Jelow,Afghanistan,AF,Badakhshan,BDS,37.077777777,70.166944444,0
3225150,Q4802029,CITY,Aruj,Aruj,Afghanistan,AF,Sar-e Pol,SAR,35.87611111,65.89361111,0
3210163,Q4802071,CITY,Arun,Arun,Afghanistan,AF,Badakhshan,BDS,38.31,70.845833333,0
92,Q685808,CITY,Asadabad,Asadabad,Afghanistan,AF,Kunar,KNR,34.874166666,71.152777777,48400
3197716,Q2663257,ADM2,Asadabad,Asadabad,Afghanistan,AF,Kunar,KNR,34.86832,71.13003,0
3687035,Q4804311,CITY,Asgharat,Asgharat,Afghanistan,AF,Bamyan,BAM,34.383333333,66.65,0
3363350,Q4804595,CITY,Ashava,Ashava,Afghanistan,AF,Parwan,PAR,35.11805556,69.10777778,0
3439136,Q4805701,CITY,Ashnam,Ashnam,Afghanistan,AF,Badakhshan,BDS,36.607777777,70.780833333,0
3312483,Q4806511,CITY,Asiabad,Asiabad,Afghanistan,AF,Samangan,SAM,36.39444444,67.88972222,0
632,Q21765090,CITY,Asmar,Asmar,Afghanistan,AF,Kunar,KNR,35.0339,71.3583,15708
3317307,Q2214697,ADM2,Atghar District,Atghar District,Afghanistan,AF,Zabul,ZAB,31.725,67.385,0
3365556,Q4827364,CITY,Av Darreh,Av Darreh,Afghanistan,AF,Bamyan,BAM,34.604166666,67.547222222,0
3200799,Q4827368,CITY,Av Par,Av Par,Afghanistan,AF,Bamyan,BAM,34.966666666,67.85,0
782,Q1020649,CITY,Aybak,Aybak,Afghanistan,AF,Samangan,SAM,36.25341,68.03936,35560
3386930,Q3694404,ADM2,Aybak,Aybak,Afghanistan,AF,Samangan,SAM,36.20667,67.98661,0
3223274,Q4831026,CITY,Aybak,Aybak,Afghanistan,AF,Helmand,HEL,32.72944444,64.70111111,0
3417173,Q2874994,CITY,Aynak,Aynak,Afghanistan,AF,Logar,LOG,34.266111111,69.305,0
3393627,Q2215339,ADM2,Azra,Azra,Afghanistan,AF,Logar,LOG,34.109166666,69.624444444,0
3243677,Q4837058,CITY,Ba Khersak,Ba Khersak,Afghanistan,AF,Badakhshan,BDS,37.861111111,71.120555555,0
3200758,Q4837366,CITY,Baba Qanbar,Baba Qanbar,Afghanistan,AF,Samangan,SAM,36.05,68.18333333,0
3340953,Q4838088,CITY,Babula'i,Babula'i,Afghanistan,AF,Badghis,BDG,35.318611111,62.952777777,0
3369995,Q4841401,CITY,Bagag,Bagag,Afghanistan,AF,Bamyan,BAM,34.633333333,66.833333333,0
3340255,Q4841756,CITY,Baghala,Baghala,Afghanistan,AF,Bamyan,BAM,34.75,67.75,0
3354053,Q4841799,CITY,Baghdad,Baghdad,Afghanistan,AF,Maidan Wardak,WAR,34.21777778,67.8875,0
134,Q732879,CITY,Baghlan,Baghlan,Afghanistan,AF,Baghlan,BGL,36.132777777,68.7,83490
3261231,Q3694248,ADM2,Baghlani Jadid,Baghlani Jadid,Afghanistan,AF,Baghlan,BGL,36.326944444,68.624166666,198382
3364468,Q794574,ADM2,Baghran District,Baghran District,Afghanistan,AF,Helmand,HEL,33.014166666,65.041944444,0
3299283,Q814388,CITY,Bagram,Bagram,Afghanistan,AF,Parwan,PAR,34.96694,69.265,0
3225420,Q799961,ADM2,Bagram District,Bagram District,Afghanistan,AF,Parwan,PAR,34.96666667,69.29277778,0
3372759,Q3694297,ADM2,Bagrami,Bagrami,Afghanistan,AF,Kabul,KAB,34.483611111,69.336111111,0
3399657,Q4842233,CITY,Bahador Khani,Bahador Khani,Afghanistan,AF,Badghis,BDG,34.785555555,62.629444444,0
3352532,Q4842237,CITY,Bahadorkhan,Bahadorkhan,Afghanistan,AF,Badghis,BDG,34.75,63.65,0
3239420,Q4842442,CITY,Baharak,Baharak,Afghanistan,AF,Badakhshan,BDS,37.002777777,70.9075,0
3201806,Q3918376,ADM2,Baharak,Baharak,Afghanistan,AF,Takhar,TAK,36.832777777,69.395277777,0
3386712,Q3918397,ADM2,Baharak District,Baharak District,Afghanistan,AF,Badakhshan,BDS,36.9956,70.8932,0
3306468,Q4842453,CITY,Baharestan,Baharestan,Afghanistan,AF,Badakhshan,BDS,36.983333333,70.883333333,0
3481364,Q28223867,CITY,Bahram Chah,Bahram Chah,Afghanistan,AF,Helmand,HEL,29.42086,64.01489,3700
3272945,Q2929367,ADM2,Bak District,Bak District,Afghanistan,AF,Khost,KHO,33.53,70.076666666,0
3390651,Q4849367,CITY,Bakharow,Bakharow,Afghanistan,AF,Badakhshan,BDS,37.976944444,70.628611111,0
3339747,Q1812576,ADM2,Bakwa District,Bakwa District,Afghanistan,AF,Farah,FRA,32.25138889,62.9575,0
3337262,Q4849658,CITY,Bala Bowkan,Bala Bowkan,Afghanistan,AF,Badghis,BDG,35.578888888,63.637777777,0
3414199,Q2380868,ADM2,Bala Buluk District,Bala Buluk District,Afghanistan,AF,Farah,FRA,32.69888889,62.73,0
3271362,Q4849661,CITY,Bala Deh,Bala Deh,Afghanistan,AF,Paktia Zurmat,PIA,33.99888889,69.21194444,0
3383847,Q4849663,CITY,Bala Duri-ye Avval,Bala Duri-ye Avval,Afghanistan,AF,Baghlan,BGL,36.058888888,68.672222222,0
3308274,Q4849664,CITY,Bala Duri-ye Dovvom,Bala Duri-ye Dovvom,Afghanistan,AF,Baghlan,BGL,36.044444444,68.672777777,0
3347324,Q4849685,CITY,Bala Kuh,Bala Kuh,Afghanistan,AF,Balkh,BAL,36.575277777,66.820277777,0
3359249,Q4849772,CITY,Baladay,Baladay,Afghanistan,AF,Kandahar,KAN,31.5475,65.71888889,0
3200928,Q4849824,CITY,Balahesar,Balahesar,Afghanistan,AF,Samangan,SAM,35.98388889,67.46916667,0
140,Q182159,CITY,Balkh,Balkh,Afghanistan,AF,Balkh,BAL,36.758055555,66.898888888,77000
3310387,Q4851127,CITY,Balkhab,Balkhab,Afghanistan,AF,Sar-e Pol,SAR,35.5,66.5,0
3422672,Q2215327,ADM2,Balkhab,Balkhab,Afghanistan,AF,Sar-e Pol,SAR,36.22138889,65.92777778,0
3409510,Q4853056,CITY,Baluchi,Baluchi,Afghanistan,AF,Balkh,BAL,36.353333333,66.917222222,0
3217769,Q4853237,CITY,Balūchī,Balūchī,Afghanistan,AF,Herat Province,HER,33.78666667,63.255,0
3440271,Q4853239,CITY,Balūchī,Balūchī,Afghanistan,AF,Urozgan,URU,32.75472222,65.91138889,0
88,Q214495,CITY,Bamyan,Bamyan,Afghanistan,AF,Bamyan,BAM,34.816666666,67.816666666,100000
3375638,Q2572224,ADM2,Bamyan,Bamyan,Afghanistan,AF,Bamyan,BAM,34.81666667,67.81666667,0
3387531,Q4853918,CITY,Banaq,Banaq,Afghanistan,AF,Bamyan,BAM,35.321111111,67.5925,0
3211002,Q4854193,CITY,Band-e Sareq,Band-e Sareq,Afghanistan,AF,Samangan,SAM,36.11194444,67.33444444,0
3339890,Q4854197,CITY,Band-e Sheram,Band-e Sheram,Afghanistan,AF,Balkh,BAL,36.133333333,67.083333333,0
3384386,Q4854194,CITY,Band-e Shuy,Band-e Shuy,Afghanistan,AF,Bamyan,BAM,34.383333333,67.433333333,0
3338157,Q3309222,ADM2,Bangi,Bangi,Afghanistan,AF,Takhar,TAK,36.613333333,69.338055555,0
3206185,Q11908077,CITY,Banow,Banow,Afghanistan,AF,Baghlan,BGL,35.634444444,69.259444444,0
3251427,Q798468,ADM2,Bar Kunar,Bar Kunar,Afghanistan,AF,Kunar,KNR,35.0339,71.3583,0
110,Q807234,CITY,Baraki Barak,Baraki Barak,Afghanistan,AF,Logar,LOG,33.969166666,68.944722222,22305
3239757,Q3918458,ADM2,Baraki Barak,Baraki Barak,Afghanistan,AF,Logar,LOG,33.93,68.885277777,0
3232691,Q4858275,CITY,Baraki Rajan,Baraki Rajan,Afghanistan,AF,Logar,LOG,33.933333333,68.916666666,0
3297207,Q4858438,CITY,Baraqi,Baraqi,Afghanistan,AF,Baghlan,BGL,36.033333333,68.966666666,0
3655856,Q4860487,CITY,Barfak,Barfak,Afghanistan,AF,Baghlan,BGL,35.349166666,68.161111111,0
3252222,Q3696136,ADM2,Barg-i Matal,Barg-i Matal,Afghanistan,AF,Nuristan,NUR,35.775,71.252777777,0
3384396,Q4860714,CITY,Barigah,Barigah,Afghanistan,AF,Bamyan,BAM,34.133333333,67.583333333,0
3311392,Q4860721,CITY,Barik-e Sofla,Barik-e Sofla,Afghanistan,AF,Bamyan,BAM,34.366666666,66.65,0
3330348,Q4860722,CITY,Barik-e `Olya,Barik-e `Olya,Afghanistan,AF,Bamyan,BAM,34.383333333,66.65,0
3425855,Q4860726,CITY,Barikak,Barikak,Afghanistan,AF,Bamyan,BAM,34.1,67.8,0
3319404,Q1650491,ADM2,Barmal District,Barmal District,Afghanistan,AF,Paktika,PKA,32.714444444,69.275,0
3243636,Q4865997,CITY,Baryavan,Baryavan,Afghanistan,AF,Badakhshan,BDS,37.533333333,70.455833333,0
3409375,Q4866716,CITY,Basenj,Basenj,Afghanistan,AF,Badakhshan,BDS,37.819444444,71.093888888,0
3347915,Q4866773,CITY,Bashanabad,Bashanabad,Afghanistan,AF,Badakhshan,BDS,36.785,71.091666666,0
3440208,Q4868380,CITY,Bastukbacheh,Bastukbacheh,Afghanistan,AF,Bamyan,BAM,34.15,67.05,0
3437840,Q1647526,ADM2,Bati Kot,Bati Kot,Afghanistan,AF,Nangarhar,NAN,34.289444444,70.756666666,0
3220670,Q4869444,CITY,Batob,Batob,Afghanistan,AF,Baghlan,BGL,36.23,69.161111111,0
3305573,Q4873573,CITY,Bauragai,Bauragai,Afghanistan,AF,Balkh,BAL,36.403888888,66.896388888,0
3329860,Q4873794,CITY,Bawragai,Bawragai,Afghanistan,AF,Balkh,BAL,36.081944444,66.898333333,0
3391533,Q4873796,CITY,Bawrchi,Bawrchi,Afghanistan,AF,Balkh,BAL,36.365833333,66.538611111,0
3287635,Q4873800,CITY,Bawshi,Bawshi,Afghanistan,AF,Balkh,BAL,35.73,67.098055555,0
3235519,Q4874038,CITY,Bay Malasi,Bay Malasi,Afghanistan,AF,Badakhshan,BDS,37.131666666,70.512777777,0
3435995,Q4874088,CITY,Bay Saqal,Bay Saqal,Afghanistan,AF,Baghlan,BGL,36.237777777,68.545277777,0
3302710,Q4874131,CITY,Bay Temor,Bay Temor,Afghanistan,AF,Balkh,BAL,36.669166666,66.7575,0
3404530,Q4874288,CITY,Bayanan,Bayanan,Afghanistan,AF,Balkh,BAL,35.8975,67.139166666,0
3212855,Q4874372,CITY,Baybacheh,Baybacheh,Afghanistan,AF,Badghis,BDG,34.953333333,64.051111111,0
3413580,Q4874389,CITY,Baybul,Baybul,Afghanistan,AF,Balkh,BAL,35.720555555,66.859444444,0
3257206,Q4874759,CITY,Bayram,Bayram,Afghanistan,AF,Baghlan,BGL,36.25,69.0,0
3209123,Q4874780,CITY,Bayri,Bayri,Afghanistan,AF,Bamyan,BAM,34.615277777,67.052777777,0
3250268,Q4875115,CITY,Bazar-e Taleh,Bazar-e Taleh,Afghanistan,AF,Baghlan,BGL,35.388611111,68.221388888,0
3321586,Q4875129,ADM2,Bazarak,Bazarak,Afghanistan,AF,Panjshir,PAN,34.55,70.55,0
3472208,Q1982148,CITY,Bazarak,Bazarak,Afghanistan,AF,Panjshir,PAN,35.313055555,69.515277777,24723
3213664,Q4875135,CITY,Bazargan,Bazargan,Afghanistan,AF,Herat Province,HER,34.35416667,62.005,0
3318020,Q4875154,CITY,Bazartu,Bazartu,Afghanistan,AF,Badghis,BDG,35.447777777,63.2925,0
3244466,Q4875179,CITY,Bazgir,Bazgir,Afghanistan,AF,Badakhshan,BDS,36.64,71.462777777,0
3726226,Q2217968,ADM2,Behsud,Behsud,Afghanistan,AF,Nangarhar,NAN,34.442777777,70.508888888,0
3306994,Q4881602,CITY,Bekhe Qada,Bekhe Qada,Afghanistan,AF,Bamyan,BAM,34.15,67.466666666,0
3269518,Q4890991,CITY,Berana,Berana,Afghanistan,AF,Bamyan,BAM,34.433333333,67.266666666,0
3244259,Q4896226,CITY,Besh Qol,Besh Qol,Afghanistan,AF,Samangan,SAM,35.91666667,68.245,0
3237270,Q4899863,CITY,Beygshahr,Beygshahr,Afghanistan,AF,Baghlan,BGL,35.4775,68.640833333,0
3319233,Q4902393,CITY,Bia Mordeh,Bia Mordeh,Afghanistan,AF,Bamyan,BAM,34.95,68.2,0
3344239,Q4903956,CITY,Bid Qowl Bala,Bid Qowl Bala,Afghanistan,AF,Bamyan,BAM,34.55,67.5,0
3340207,Q4903924,CITY,Bid-e Kalan,Bid-e Kalan,Afghanistan,AF,Badakhshan,BDS,37.345833333,70.310277777,0
3288427,Q4904221,CITY,Bidqowl,Bidqowl,Afghanistan,AF,Bamyan,BAM,34.1,66.816666666,0
3199575,Q4907641,ADM2,Bilchiragh,Bilchiragh,Afghanistan,AF,Faryab,FYB,35.8386,65.2308,0
3313793,Q4915598,CITY,Biraneh,Biraneh,Afghanistan,AF,Bamyan,BAM,34.766666666,68.1,0
3367411,Q4916337,CITY,Birimak,Birimak,Afghanistan,AF,Bamyan,BAM,34.2,67.516666666,0
3440730,Q4938887,CITY,Bolagh Tughaneh,Bolagh Tughaneh,Afghanistan,AF,Bamyan,BAM,34.116666666,67.65,0
3297542,Q4938888,CITY,Bolagh-e Sabz,Bolagh-e Sabz,Afghanistan,AF,Bamyan,BAM,34.733333333,67.683333333,0
3266710,Q4938916,CITY,Boland Dival,Boland Dival,Afghanistan,AF,Bamyan,BAM,34.05,67.5,0
3209909,Q15202865,CITY,Bolowleh,Bolowleh,Afghanistan,AF,Bamyan,BAM,34.88333333,68.08333333,0
3362918,Q4945111,CITY,Boria Bal,Boria Bal,Afghanistan,AF,Balkh,BAL,37.17,67.235555555,0
3331533,Q4951464,CITY,Bowz Arigh,Bowz Arigh,Afghanistan,AF,Balkh,BAL,37.318333333,66.671666666,0
3437238,Q4952773,CITY,Boz Darreh,Boz Darreh,Afghanistan,AF,Baghlan,BGL,35.968333333,69.09,0
3336887,Q4952799,CITY,Bozba'i,Bozba'i,Afghanistan,AF,Badghis,BDG,35.451388888,63.383333333,0
3261658,Q4997215,CITY,Bum-e Shebar,Bum-e Shebar,Afghanistan,AF,Bamyan,BAM,34.816666666,67.516666666,0
3250207,Q3694291,ADM2,Burka,Burka,Afghanistan,AF,Baghlan,BGL,36.240833333,69.162777777,0
3213401,Q5055216,CITY,Cawgay,Cawgay,Afghanistan,AF,Zabul,ZAB,32.23694444,66.64305556,0
923,Q958621,CITY,Chaghcharan,Chaghcharan,Afghanistan,AF,Ghōr,GHO,34.5225,65.251666666,15000
3230029,Q2725478,ADM2,Chaghcharan District,Chaghcharan District,Afghanistan,AF,Ghōr,GHO,34.5225,65.2517,0
3442301,Q2468989,ADM2,Chah Ab,Chah Ab,Afghanistan,AF,Takhar,TAK,37.45004,69.8799,0
3224747,Q1647479,ADM2,Chahar Burjak District,Chahar Burjak District,Afghanistan,AF,Nimruz,NIM,30.269588,62.151718,0
3298635,Q5067571,CITY,Chahar Dar,Chahar Dar,Afghanistan,AF,Baghlan,BGL,35.396111111,68.607222222,0
3434506,Q5067589,CITY,Chahar Kent,Chahar Kent,Afghanistan,AF,Balkh,BAL,36.5,67.333333333,0
3297925,Q5067593,CITY,Chahar Mahalleh,Chahar Mahalleh,Afghanistan,AF,Balkh,BAL,36.495277777,67.193333333,0
3259654,Q5067672,ADM2,Chaharikar District,Chaharikar District,Afghanistan,AF,Parwan,PAR,34.9477,69.3116,0
3413198,Q5067690,CITY,Chahi,Chahi,Afghanistan,AF,Balkh,BAL,36.998611111,66.686944444,0
661,Q21763949,CITY,Chahār Burj,Chahār Burj,Afghanistan,AF,Herat Province,HER,34.244722222,62.191666666,11935
3365882,Q5068322,CITY,Chakhansur,Chakhansur,Afghanistan,AF,Nimruz,NIM,31.17517,62.06449,0
3317845,Q388289,ADM2,Chakhansur District,Chakhansur District,Afghanistan,AF,Nimruz,NIM,31.16666667,62.06666667,0
3249002,Q1059332,ADM2,Chaki Wardak,Chaki Wardak,Afghanistan,AF,Maidan Wardak,WAR,34.108555555,68.579775,0
3292111,Q3309261,ADM2,Chal,Chal,Afghanistan,AF,Takhar,TAK,36.4975,69.559166666,0
3340872,Q5068576,CITY,Chalas,Chalas,Afghanistan,AF,Kunar,KNR,34.79138889,70.81694444,0
3214877,Q5069259,CITY,Cham Qal`eh,Cham Qal`eh,Afghanistan,AF,Baghlan,BGL,36.138611111,68.745833333,0
3369921,Q798508,ADM2,Chapa Dara,Chapa Dara,Afghanistan,AF,Kunar,KNR,34.982777777,70.599444444,0
3299563,Q3694378,ADM2,Chaparhar,Chaparhar,Afghanistan,AF,Nangarhar,NAN,34.32215,70.385284,0
3382798,Q5072958,CITY,Chapchal,Chapchal,Afghanistan,AF,Balkh,BAL,36.016388888,67.195833333,0
3225466,Q2673902,ADM2,Char Asiab,Char Asiab,Afghanistan,AF,Kabul,KAB,34.387222222,69.072777777,0
3333700,Q5073601,CITY,Char Bagh,Char Bagh,Afghanistan,AF,Laghman,LAG,34.53166667,70.28972222,0
3235724,Q5073615,CITY,Char Bulak,Char Bulak,Afghanistan,AF,Balkh,BAL,36.767222222,66.705277777,0
3615249,Q1062874,ADM2,Char Dara,Char Dara,Afghanistan,AF,Kunduz,KDZ,36.6933,68.8014,0
3398200,Q5073643,CITY,Char Kateh,Char Kateh,Afghanistan,AF,Bamyan,BAM,34.833333333,68.116666666,0
3318372,Q3694342,ADM2,Charbolak,Charbolak,Afghanistan,AF,Balkh,BAL,36.833333333,66.639444444,91539
448,Q944395,CITY,Charikar,Charikar,Afghanistan,AF,Parwan,PAR,35.016666666,69.166666666,69110
3402650,Q2215285,ADM2,Charkh District,Charkh District,Afghanistan,AF,Logar,LOG,33.7967,68.9411,0
3238990,Q3694271,ADM2,Charkint,Charkint,Afghanistan,AF,Balkh,BAL,36.367777777,67.240277777,0
3319664,Q4816628,ADM2,Charsadda District,Charsadda District,Afghanistan,AF,Ghōr,GHO,35.119444444,65.117777777,0
3333857,Q5087397,CITY,Chasnud-e Sofla,Chasnud-e Sofla,Afghanistan,AF,Badakhshan,BDS,37.921944444,71.289444444,0
3394857,Q5087398,CITY,Chasnud-e `Olya,Chasnud-e `Olya,Afghanistan,AF,Badakhshan,BDS,37.766666666,71.533333333,0
3215411,Q2665173,ADM2,Chawkay,Chawkay,Afghanistan,AF,Kunar,KNR,34.6961,70.9247,0
3394406,Q13582138,CITY,Chehel Gazi,Chehel Gazi,Afghanistan,AF,Balkh,BAL,36.73,66.99166667,0
3351155,Q5089603,CITY,Chehel Tan,Chehel Tan,Afghanistan,AF,Bamyan,BAM,34.716666666,67.616666666,0
3238931,Q5090663,CITY,Chemtal,Chemtal,Afghanistan,AF,Balkh,BAL,36.6775,66.805833333,0
3202976,Q5093010,CITY,Cheshmeh-ye Duzakh,Cheshmeh-ye Duzakh,Afghanistan,AF,Badghis,BDG,35.087777777,63.088333333,0
3238779,Q5093034,CITY,Cheshmeh-ye Shafa,Cheshmeh-ye Shafa,Afghanistan,AF,Balkh,BAL,36.533333333,66.966666666,0
3353554,Q5093033,CITY,Cheshmeh-ye Shir,Cheshmeh-ye Shir,Afghanistan,AF,Baghlan,BGL,36.0675,68.589166666,0
3337594,Q3694243,ADM2,Chimtal,Chimtal,Afghanistan,AF,Balkh,BAL,36.517777777,66.600833333,103630
338,Q5101860,CITY,Chiras,Chiras,Afghanistan,AF,Sar-e Pol,SAR,35.41666667,65.98333333,12779
3337032,Q3696177,ADM2,Chishti Sharif District,Chishti Sharif District,Afghanistan,AF,Herat Province,HER,34.445277777,63.957222222,0
3532354,Q2720579,CITY,Chora,Chora,Afghanistan,AF,Urozgan,URU,32.85,66.08,0
3249043,Q5115235,CITY,Chub Bash,Chub Bash,Afghanistan,AF,Balkh,BAL,37.346666666,66.906388888,0
3399815,Q5208090,CITY,Dado,Dado,Afghanistan,AF,Ghazni,GHA,33.6681,68.6008,0
3213789,Q5208129,CITY,Dadwal,Dadwal,Afghanistan,AF,Khost,KHO,33.3103,69.7992,0
3433714,Q5208719,CITY,Dahan-e Av Par,Dahan-e Av Par,Afghanistan,AF,Bamyan,BAM,34.966666666,67.866666666,0
3355871,Q5208720,CITY,Dahan-e Baghdarreh,Dahan-e Baghdarreh,Afghanistan,AF,Baghlan,BGL,35.607777777,69.446944444,0
3272673,Q5208721,CITY,Dahan-e Chahar Deh,Dahan-e Chahar Deh,Afghanistan,AF,Bamyan,BAM,34.716666666,66.816666666,0
3312495,Q5208723,CITY,Dahan-e Darreh Chasht,Dahan-e Darreh Chasht,Afghanistan,AF,Bamyan,BAM,34.95,66.533333333,0
3318405,Q5208724,CITY,Dahan-e Dival,Dahan-e Dival,Afghanistan,AF,Bamyan,BAM,34.45,67.583333333,0
3261809,Q5208725,CITY,Dahan-e Do Laneh,Dahan-e Do Laneh,Afghanistan,AF,Bamyan,BAM,34.366666666,67.5,0
3440322,Q5208726,CITY,Dahan-e Eshposhteh,Dahan-e Eshposhteh,Afghanistan,AF,Baghlan,BGL,35.301111111,68.084444444,0
3345994,Q5208728,CITY,Dahan-e Fatu,Dahan-e Fatu,Afghanistan,AF,Bamyan,BAM,34.183333333,67.0,0
3374064,Q5208730,CITY,Dahan-e Jow Palal,Dahan-e Jow Palal,Afghanistan,AF,Bamyan,BAM,34.866666666,67.5,0
3214015,Q5208731,CITY,Dahan-e Jowkak,Dahan-e Jowkak,Afghanistan,AF,Bamyan,BAM,34.95,68.0,0
3410989,Q5208732,CITY,Dahan-e Kanak,Dahan-e Kanak,Afghanistan,AF,Bamyan,BAM,34.716666666,66.866666666,0
3318352,Q5208733,CITY,Dahan-e Karkareh,Dahan-e Karkareh,Afghanistan,AF,Bamyan,BAM,34.983333333,68.083333333,0
3407657,Q5208734,CITY,Dahan-e Khawal,Dahan-e Khawal,Afghanistan,AF,Bamyan,BAM,34.916666666,68.166666666,0
3396598,Q5208735,CITY,Dahan-e Khoshkak,Dahan-e Khoshkak,Afghanistan,AF,Bamyan,BAM,34.783333333,67.983333333,0
3311405,Q5208736,CITY,Dahan-e Koklan,Dahan-e Koklan,Afghanistan,AF,Badghis,BDG,34.863888888,62.555833333,0
3297552,Q5208737,CITY,Dahan-e Mad,Dahan-e Mad,Afghanistan,AF,Bamyan,BAM,34.933333333,67.95,0
3200361,Q5208738,CITY,Dahan-e Shibar,Dahan-e Shibar,Afghanistan,AF,Bamyan,BAM,34.466666666,67.333333333,0
3295477,Q5208739,CITY,Dahan-e Siahqowl,Dahan-e Siahqowl,Afghanistan,AF,Baghlan,BGL,35.559166666,68.410833333,0
3348071,Q5208741,CITY,Dahan-e Valian,Dahan-e Valian,Afghanistan,AF,Baghlan,BGL,35.589722222,68.869444444,0
3370077,Q4808942,ADM2,Dahana i Ghuri,Dahana i Ghuri,Afghanistan,AF,Baghlan,BGL,35.823055555,68.458333333,0
524,Q5194960,CITY,Dahaneh-ye Ghowri,Dahaneh-ye Ghowri,Afghanistan,AF,Baghlan,BGL,35.9075,68.493888888,3307
3418285,Q5209948,CITY,Daki,Daki,Afghanistan,AF,Bamyan,BAM,34.883333333,68.2,0
3266987,Q5210882,CITY,Dali,Dali,Afghanistan,AF,Balkh,BAL,37.311944444,66.576388888,0
3211413,Q5211076,CITY,Dalkhaki,Dalkhaki,Afghanistan,AF,Samangan,SAM,36.34583333,67.955,0
3218746,Q5211936,CITY,Daman,Daman,Afghanistan,AF,Kandahar,KAN,31.619722222,65.897222222,0
3346874,Q3012608,ADM2,Daman District,Daman District,Afghanistan,AF,Kandahar,KAN,31.220555555,65.749722222,0
3318181,Q2705706,ADM2,Dand Aw Patan District,Dand Aw Patan District,Afghanistan,AF,Paktia Zurmat,PIA,33.791666666,69.910833333,0
3214790,Q2663252,ADM2,Dangam,Dangam,Afghanistan,AF,Kunar,KNR,34.9925,71.4189,0
3410839,Q3696140,ADM2,Dara-I-Nur,Dara-I-Nur,Afghanistan,AF,Nangarhar,NAN,34.706666666,70.585833333,0
3325693,Q2663248,ADM2,Dara-I-Pech,Dara-I-Pech,Afghanistan,AF,Kunar,KNR,34.954444444,70.816944444,0
3296351,Q5222015,CITY,Darabad,Darabad,Afghanistan,AF,Balkh,BAL,36.950277777,66.927222222,0
3259363,Q13217376,ADM2,Darah Sof Balla,Darah Sof Balla,Afghanistan,AF,Samangan,SAM,35.680833333,67.2825,0
3387562,Q13217378,ADM2,Darah Sof Payan,Darah Sof Payan,Afghanistan,AF,Samangan,SAM,36.025,67.347222222,0
3415211,Q5222045,ADM2,Darah district,Darah district,Afghanistan,AF,Panjshir,PAN,32.9188,67.3147,0
3368096,Q5222123,CITY,Darayem,Darayem,Afghanistan,AF,Badakhshan,BDS,36.866666666,70.383333333,0
3268965,Q2670900,ADM2,Darayim District,Darayim District,Afghanistan,AF,Badakhshan,BDS,36.8725,70.46861111,0
3269865,Q5222625,CITY,Darghani,Darghani,Afghanistan,AF,Bamyan,BAM,34.133333333,67.6,0
3217690,Q5224043,CITY,Darmadar,Darmadar,Afghanistan,AF,Badakhshan,BDS,37.2,71.416666666,0
3354927,Q5224050,CITY,Darmarakh,Darmarakh,Afghanistan,AF,Badakhshan,BDS,37.333333333,71.483333333,0
3392384,Q3918446,ADM2,Darqad,Darqad,Afghanistan,AF,Takhar,TAK,37.45379,69.49901,0
3437897,Q5224453,CITY,Darreh Javay,Darreh Javay,Afghanistan,AF,Badakhshan,BDS,38.247777777,70.793611111,0
3312902,Q5224270,CITY,Darreh-ye Altamur,Darreh-ye Altamur,Afghanistan,AF,Bamyan,BAM,34.383333333,67.5,0
3265896,Q5224272,CITY,Darreh-ye Awd,Darreh-ye Awd,Afghanistan,AF,Bamyan,BAM,34.916666666,66.466666666,0
3383258,Q5224288,CITY,Darreh-ye Bum,Darreh-ye Bum,Afghanistan,AF,Badghis,BDG,35.135277777,63.468888888,0
3195316,Q5224293,CITY,Darreh-ye Darvazeh,Darreh-ye Darvazeh,Afghanistan,AF,Bamyan,BAM,34.75,67.516666666,0
3423275,Q5224315,CITY,Darreh-ye Jalmesh,Darreh-ye Jalmesh,Afghanistan,AF,Bamyan,BAM,35.010833333,68.061111111,0
3345791,Q5224316,CITY,Darreh-ye Joval,Darreh-ye Joval,Afghanistan,AF,Badghis,BDG,34.740277777,62.6725,0
3251777,Q5224319,CITY,Darreh-ye Kajak,Darreh-ye Kajak,Afghanistan,AF,Bamyan,BAM,34.483333333,67.5,0
3333954,Q5224331,CITY,Darreh-ye Navora,Darreh-ye Navora,Afghanistan,AF,Bamyan,BAM,34.333333333,67.616666666,0
3196894,Q5224334,CITY,Darreh-ye Pay Nav,Darreh-ye Pay Nav,Afghanistan,AF,Bamyan,BAM,34.3,67.616666666,0
3364440,Q5224343,CITY,Darreh-ye Pishkan,Darreh-ye Pishkan,Afghanistan,AF,Badakhshan,BDS,36.841944444,70.785833333,0
3195590,Q5224352,CITY,Darreh-ye Shu,Darreh-ye Shu,Afghanistan,AF,Baghlan,BGL,35.551944444,69.4875,0
3268478,Q5224353,CITY,Darreh-ye Suf,Darreh-ye Suf,Afghanistan,AF,Balkh,BAL,35.934166666,67.18,0
3258536,Q5226339,CITY,Darunta,Darunta,Afghanistan,AF,Nangarhar,NAN,34.47888889,70.36222222,0
3668653,Q2673995,ADM2,Darwaz,Darwaz,Afghanistan,AF,Badakhshan,BDS,38.227777777,70.911388888,0
3431156,Q950043,ADM2,Darwazi Bala,Darwazi Bala,Afghanistan,AF,Badakhshan,BDS,38.128333333,71.225,0
3036558,Q21771962,CITY,Darwāzkay,Darwāzkay,Afghanistan,AF,Kunar,KNR,35.024444444,71.0475,111
366,Q5196429,CITY,Darzab,Darzab,Afghanistan,AF,Jowzjan,JOW,35.9783,65.3792,9642
3365353,Q3694393,ADM2,Darzab,Darzab,Afghanistan,AF,Jowzjan,JOW,36.004444444,65.372777777,0
967,Q21758408,CITY,Dasht-e Archī,Dasht-e Archī,Afghanistan,AF,Kunduz,KDZ,37.133333333,69.166666666,8263
3329400,Q5226673,CITY,Dasht-e Borsoneh,Dasht-e Borsoneh,Afghanistan,AF,Bamyan,BAM,34.8,67.8,0
3360606,Q5226696,CITY,Dasht-e Sachak,Dasht-e Sachak,Afghanistan,AF,Bamyan,BAM,34.833333333,66.633333333,0
3393231,Q2214871,ADM2,Dashti Qala,Dashti Qala,Afghanistan,AF,Takhar,TAK,37.202222222,69.501666666,35347
3285213,Q3696057,ADM2,Dawlat Abad,Dawlat Abad,Afghanistan,AF,Faryab,FYB,36.421388888,64.896944444,0
3284596,Q5242376,ADM2,Dawlat Shah,Dawlat Shah,Afghanistan,AF,Laghman,LAG,34.9528,70.07,0
3335089,Q2714244,ADM2,Dawlat Yar District,Dawlat Yar District,Afghanistan,AF,Ghōr,GHO,34.580277777,65.751388888,0
3354497,Q960735,ADM2,Dawlatabad,Dawlatabad,Afghanistan,AF,Balkh,BAL,37.064166666,66.798055555,0
3467202,Q3309249,ADM2,Day Mirdad,Day Mirdad,Afghanistan,AF,Maidan Wardak,WAR,34.2164,68.2952,0
3442310,Q5244593,CITY,De Loy Wiyaleh Kelay,De Loy Wiyaleh Kelay,Afghanistan,AF,Helmand,HEL,30.59611111,64.0075,0
3220117,Q5244641,CITY,De Mulla Samandar Sahib Kelay,De Mulla Samandar Sahib Kelay,Afghanistan,AF,Paktika,PKA,32.585,68.32972222,0
3194024,Q5252011,CITY,Deh Bala,Deh Bala,Afghanistan,AF,Nangarhar,NAN,34.1,70.46666667,0
3205880,Q5252017,CITY,Deh Berenj Qal`eh,Deh Berenj Qal`eh,Afghanistan,AF,Badghis,BDG,34.75,63.266666666,0
3201974,Q5252050,CITY,Deh Gholaman,Deh Gholaman,Afghanistan,AF,Badakhshan,BDS,36.95,73.116666666,0
3299991,Q5252055,CITY,Deh Hezareh,Deh Hezareh,Afghanistan,AF,Bamyan,BAM,34.75,67.783333333,0
3324157,Q5252099,CITY,Deh Now,Deh Now,Afghanistan,AF,Balkh,BAL,37.027777777,66.748333333,0
3421391,Q1183073,ADM2,Deh Rahwod District,Deh Rahwod District,Afghanistan,AF,Urozgan,URU,32.62638889,65.47027778,0
3203132,Q2342330,CITY,Deh Rawood,Deh Rawood,Afghanistan,AF,Urozgan,URU,32.62413,65.45966,0
3211907,Q3769083,ADM2,Deh Sabz,Deh Sabz,Afghanistan,AF,Kabul,KAB,34.753513,69.267269,0
3318816,Q5251970,CITY,Deh-e Salah,Deh-e Salah,Afghanistan,AF,Baghlan,BGL,35.689166666,69.314166666,0
3244478,Q1182942,CITY,Dehdadi,Dehdadi,Afghanistan,AF,Balkh,BAL,36.662222222,66.995277777,0
3303005,Q5252245,CITY,Dehestan,Dehestan,Afghanistan,AF,Badghis,BDG,34.691111111,62.918888888,0
3259054,Q5252324,CITY,Dehnawe Farza,Dehnawe Farza,Afghanistan,AF,Kabul,KAB,34.7897,69.0372,0
3413529,Q5253087,CITY,Delak,Delak,Afghanistan,AF,Ghōr,GHO,34.4,65.916666666,0
3243201,Q5268265,CITY,Dewlak,Dewlak,Afghanistan,AF,Bamyan,BAM,34.2,67.65,0
3424073,Q1647702,ADM2,Dey Chopan District,Dey Chopan District,Afghanistan,AF,Zabul,ZAB,32.613333333,66.691111111,0
3372572,Q429594,ADM2,Dih Yak District,Dih Yak District,Afghanistan,AF,Ghazni,GHA,33.476413,68.763027,0
3340800,Q5276655,ADM2,Dila District,Dila District,Afghanistan,AF,Paktika,PKA,32.56376,68.13115,0
3380146,Q2456306,ADM2,Dishu District,Dishu District,Afghanistan,AF,Helmand,HEL,29.879166666,63.174444444,0
3395153,Q5283770,CITY,Div Khaneh-ye Pa'in,Div Khaneh-ye Pa'in,Afghanistan,AF,Bamyan,BAM,34.815833333,67.1525,0
3290845,Q5283809,CITY,Divalak-e `Olya,Divalak-e `Olya,Afghanistan,AF,Bamyan,BAM,34.933333333,68.133333333,0
3265244,Q5285927,CITY,Do Ab,Do Ab,Afghanistan,AF,Bamyan,BAM,35.365833333,67.797777777,0
3222737,Q5285937,CITY,Do Ab-e Mikh-e Zarrin,Do Ab-e Mikh-e Zarrin,Afghanistan,AF,Baghlan,BGL,35.264444444,67.993055555,0
3435401,Q5285938,CITY,Do Ab-e Valian,Do Ab-e Valian,Afghanistan,AF,Baghlan,BGL,35.48,68.878055555,0
3400612,Q5286223,CITY,Do Ru,Do Ru,Afghanistan,AF,Bamyan,BAM,35.363333333,67.740833333,0
3299855,Q5288407,CITY,Dogor Gunt,Dogor Gunt,Afghanistan,AF,Badakhshan,BDS,36.793333333,72.015833333,0
3340384,Q5288721,CITY,Dokani,Dokani,Afghanistan,AF,Bamyan,BAM,34.733333333,67.85,0
3607673,Q2163607,CITY,Dowlatabad,Dowlatabad,Afghanistan,AF,Balkh,BAL,36.99,66.822222222,6111
3288434,Q5303635,CITY,Dowra'id,Dowra'id,Afghanistan,AF,Bamyan,BAM,34.983333333,67.933333333,0
3396000,Q5303662,CITY,Dowshi,Dowshi,Afghanistan,AF,Baghlan,BGL,35.608611111,68.685833333,0
3368268,Q3696107,ADM2,Du Ab,Du Ab,Afghanistan,AF,Nuristan,NUR,35.213888888,70.373333333,0
3281448,Q2714251,ADM2,Du Layna District,Du Layna District,Afghanistan,AF,Ghōr,GHO,34.118611111,65.008055555,0
3271148,Q5311730,CITY,Dudgah,Dudgah,Afghanistan,AF,Badakhshan,BDS,36.763611111,70.381111111,0
3250390,Q2217855,ADM2,Dur Baba,Dur Baba,Afghanistan,AF,Nangarhar,NAN,34.098055555,70.963055555,0
3247414,Q5316145,CITY,Duraj,Duraj,Afghanistan,AF,Badakhshan,BDS,37.931944444,70.72,0
3395209,Q5316691,CITY,Durman,Durman,Afghanistan,AF,Badakhshan,BDS,38.233333333,70.783333333,0
3016076,Q3694442,ADM2,Dushi,Dushi,Afghanistan,AF,Baghlan,BGL,35.620833333,68.665833333,57000
3414181,Q5353521,CITY,Elasayel,Elasayel,Afghanistan,AF,Bamyan,BAM,34.95,68.2,0
3196567,Q5375186,CITY,Enam,Enam,Afghanistan,AF,Logar,LOG,34.08333333,68.9,0
3445022,Q5385782,CITY,Erganah,Erganah,Afghanistan,AF,Bamyan,BAM,35.193055555,67.467222222,0
3202844,Q5397881,CITY,Eshmorgh,Eshmorgh,Afghanistan,AF,Badakhshan,BDS,36.981388888,72.411111111,0
3384528,Q5398007,CITY,Eskan,Eskan,Afghanistan,AF,Badakhshan,BDS,36.638888888,70.854722222,0
3288109,Q5398022,CITY,Eskar,Eskar,Afghanistan,AF,Baghlan,BGL,35.555,68.5225,0
3322438,Q5398036,CITY,Eskatul,Eskatul,Afghanistan,AF,Badakhshan,BDS,36.414444444,71.271388888,0
3313808,Q1367888,CITY,Eslām Chūngar,Eslām Chūngar,Afghanistan,AF,Jowzjan,JOW,37.283333333,66.45,0
3327887,Q5434467,CITY,Faqiran,Faqiran,Afghanistan,AF,Bamyan,BAM,34.133333333,67.733333333,0
3392161,Q5434577,CITY,Far Ghambowl,Far Ghambowl,Afghanistan,AF,Badakhshan,BDS,37.235,70.3625,0
518,Q593156,CITY,Farah,Farah,Afghanistan,AF,Farah,FRA,32.343611111,62.119444444,54000
3277202,Q2399439,ADM2,Farah City District,Farah City District,Afghanistan,AF,Farah,FRA,32.21768,62.25992,0
3257051,Q5434830,ADM2,Farang Wa Gharu,Farang Wa Gharu,Afghanistan,AF,Baghlan,BGL,36.136944444,69.681388888,0
3437853,Q5435085,CITY,Farghamiru,Farghamiru,Afghanistan,AF,Badakhshan,BDS,36.747777777,70.825555555,0
3349486,Q5435086,CITY,Farghamu,Farghamu,Afghanistan,AF,Badakhshan,BDS,36.385833333,70.745555555,0
3415170,Q3918453,ADM2,Farkhar,Farkhar,Afghanistan,AF,Takhar,TAK,36.47,69.960833333,0
3723998,Q21757432,CITY,Farkhār,Farkhār,Afghanistan,AF,Takhar,TAK,36.572777777,69.857777777,10480
3384461,Q2714318,ADM2,Farsi District,Farsi District,Afghanistan,AF,Herat Province,HER,33.6974,63.0921,0
3211064,Q3918456,ADM2,Farza,Farza,Afghanistan,AF,Kabul,KAB,34.793888888,69.017777777,0
3413582,Q5437916,CITY,Fatmasti,Fatmasti,Afghanistan,AF,Bamyan,BAM,34.816666666,67.883333333,0
878,Q156558,CITY,Fayzabad,Fayzabad,Afghanistan,AF,Badakhshan,BDS,37.121944444,70.583333333,44421
3282674,Q2887829,ADM2,Fayzabad District,Fayzabad District,Afghanistan,AF,Badakhshan,BDS,37.05083333,70.57972222,0
3295692,Q3504927,ADM2,Fayzabad District,Fayzabad District,Afghanistan,AF,Jowzjan,JOW,36.704444444,66.329722222,0
3434033,Q5445211,ADM2,Feroz Nakhchir,Feroz Nakhchir,Afghanistan,AF,Samangan,SAM,36.456388888,67.577222222,0
3322787,Q5464839,CITY,Folowl-e Bala,Folowl-e Bala,Afghanistan,AF,Baghlan,BGL,36.211666666,69.259444444,0
3243645,Q5464841,CITY,Folowl-e Pa'in,Folowl-e Pa'in,Afghanistan,AF,Baghlan,BGL,36.22,69.250555555,0
3017372,Q5474038,CITY,Fotur,Fotur,Afghanistan,AF,Badakhshan,BDS,36.686111111,71.64,436
3264560,Q5518920,CITY,Galleh Chaghar,Galleh Chaghar,Afghanistan,AF,Badghis,BDG,34.747777777,62.782777777,0
3637045,Q984094,CITY,Gandamak,Gandamak,Afghanistan,AF,Nangarhar,NAN,34.2892,70.0383,0
3224536,Q5522156,CITY,Gardan Deh,Gardan Deh,Afghanistan,AF,Bamyan,BAM,34.116666666,67.6,0
3237251,Q5522157,CITY,Gardan Kichah,Gardan Kichah,Afghanistan,AF,Bamyan,BAM,34.05,67.6,0
3366856,Q3695179,ADM2,Gardez District,Gardez District,Afghanistan,AF,Paktia Zurmat,PIA,33.60134,69.24159,0
364,Q467632,CITY,Gardēz,Gardēz,Afghanistan,AF,Paktia Zurmat,PIA,33.593055555,69.229722222,70000
3377773,Q5523492,CITY,Garm Bolagh,Garm Bolagh,Afghanistan,AF,Bamyan,BAM,34.7,67.866666666,0
3367773,Q5523575,CITY,Garmsir,Garmsir,Afghanistan,AF,Helmand,HEL,31.1167,64.2,0
3476099,Q794577,ADM2,Garmsir District,Garmsir District,Afghanistan,AF,Helmand,HEL,31.1255,64.211,0
3427651,Q3793167,CITY,Gawaki,Gawaki,Afghanistan,AF,Badakhshan,BDS,36.983888888,70.293611111,0
3240270,Q5528426,CITY,Gawanak,Gawanak,Afghanistan,AF,Sar-e Pol,SAR,35.21777778,66.32805556,0
3373883,Q1650508,ADM2,Gayan District,Gayan District,Afghanistan,AF,Paktika,PKA,32.975277777,69.399166666,0
3037128,Q5528955,CITY,Gaz Khan,Gaz Khan,Afghanistan,AF,Badakhshan,BDS,37.018611111,72.691666666,232
3410814,Q5530353,CITY,Gelak,Gelak,Afghanistan,AF,Badghis,BDG,34.883333333,63.833333333,0
3199378,Q3694388,ADM2,Gelan District,Gelan District,Afghanistan,AF,Ghazni,GHA,32.730974,67.636271,0
3416694,Q5555530,CITY,Ghandak,Ghandak,Afghanistan,AF,Bamyan,BAM,34.983333333,68.0,0
3326526,Q13582301,CITY,Ghar Javin,Ghar Javin,Afghanistan,AF,Badakhshan,BDS,37.46666667,71.45,0
3379972,Q5555719,CITY,Ghargharreh,Ghargharreh,Afghanistan,AF,Bamyan,BAM,34.599166666,67.518888888,0
3340280,Q10289398,CITY,Gharji,Gharji,Afghanistan,AF,Badakhshan,BDS,36.916944444,70.457777777,0
3313473,Q5555772,CITY,Gharmeh,Gharmeh,Afghanistan,AF,Badghis,BDG,34.79,64.134166666,0
3353659,Q2223465,ADM2,Ghaziabad,Ghaziabad,Afghanistan,AF,Kunar,KNR,34.7158,70.7592,0
3708249,Q173731,CITY,Ghazni,Ghazni,Afghanistan,AF,Ghazni,GHA,33.549166666,68.423333333,143379
3242823,Q3694458,ADM2,Ghazni District,Ghazni District,Afghanistan,AF,Ghazni,GHA,33.53423,68.43667,0
3258716,Q5556921,CITY,Ghonvar,Ghonvar,Afghanistan,AF,Badakhshan,BDS,38.211388888,70.781666666,0
3371911,Q15221627,CITY,Ghorak,Ghorak,Afghanistan,AF,Kandahar,KAN,32.03333333,65.13388889,0
3379911,Q3694402,ADM2,Ghorak District,Ghorak District,Afghanistan,AF,Kandahar,KAN,32.043888888,65.195555555,0
3319700,Q1650493,ADM2,Ghorband District,Ghorband District,Afghanistan,AF,Parwan,PAR,35.0,68.85,0
903,Q5556982,CITY,Ghormach,Ghormach,Afghanistan,AF,Badghis,BDG,35.725555555,63.789444444,30000
3314326,Q2429826,ADM2,Ghormach,Ghormach,Afghanistan,AF,Badghis,BDG,35.725555555,63.789444444,0
3248983,Q15221631,CITY,Ghowch,Ghowch,Afghanistan,AF,Bamyan,BAM,34.06666667,67.63333333,0
3235243,Q5557506,CITY,Ghowch Naveh,Ghowch Naveh,Afghanistan,AF,Bamyan,BAM,34.533333333,66.933333333,0
3330317,Q5557508,CITY,Ghowjurak,Ghowjurak,Afghanistan,AF,Bamyan,BAM,34.866666666,68.15,0
3282987,Q5557516,CITY,Ghowrayd Gharami,Ghowrayd Gharami,Afghanistan,AF,Badakhshan,BDS,36.5225,70.789166666,0
3357571,Q5557652,CITY,Ghulam Nabi Kelay,Ghulam Nabi Kelay,Afghanistan,AF,Helmand,HEL,30.7425,64.11916667,0
3427234,Q5557697,CITY,Ghumay,Ghumay,Afghanistan,AF,Badakhshan,BDS,38.148055555,71.2825,0
354,Q2634612,CITY,Ghurian,Ghurian,Afghanistan,AF,Herat Province,HER,34.34,61.47,12404
3240539,Q1521844,ADM2,Ghurian District,Ghurian District,Afghanistan,AF,Herat Province,HER,34.3438,61.4798,0
947,Q3735459,CITY,Girishk,Girishk,Afghanistan,AF,Helmand,HEL,31.81666667,64.56666667,43588
3441775,Q3696219,ADM2,Giro District,Giro District,Afghanistan,AF,Ghazni,GHA,33.063055555,68.345833333,0
3301003,Q5564840,CITY,Giru Qowl,Giru Qowl,Afghanistan,AF,Bamyan,BAM,34.083333333,67.55,0
3435561,Q2673481,ADM2,Gizab District,Gizab District,Afghanistan,AF,Daykundi,DAY,33.401944444,66.265555555,0
3280328,Q5576816,CITY,Godri,Godri,Afghanistan,AF,Baghlan,BGL,36.061111111,69.286666666,0
3369848,Q5581032,CITY,Golzar,Golzar,Afghanistan,AF,Kabul,KAB,34.3933,69.1697,0
3242759,Q5581043,CITY,Golzar Kalay,Golzar Kalay,Afghanistan,AF,Zabul,ZAB,32.9222,67.1364,0
3195814,Q1650531,ADM2,Gomal District,Gomal District,Afghanistan,AF,Paktika,PKA,32.388888888,68.946666666,45873
3227938,Q5581378,CITY,Gonbad-e Pa'in,Gonbad-e Pa'in,Afghanistan,AF,Badakhshan,BDS,36.914166666,70.063611111,0
3193228,Q3918435,ADM2,Gosfandi,Gosfandi,Afghanistan,AF,Sar-e Pol,SAR,36.22138889,65.92777778,0
3414462,Q2217848,ADM2,Goshta,Goshta,Afghanistan,AF,Nangarhar,NAN,34.356111111,70.772222222,0
3267882,Q5589971,CITY,Gow Darreh,Gow Darreh,Afghanistan,AF,Bamyan,BAM,34.633333333,68.033333333,0
3203459,Q5590133,CITY,Gowri Sukhteh,Gowri Sukhteh,Afghanistan,AF,Baghlan,BGL,35.466666666,68.968611111,0
3322243,Q5590144,CITY,Gowritik,Gowritik,Afghanistan,AF,Badakhshan,BDS,37.05,74.133333333,0
3322932,Q5590142,CITY,Gowshak,Gowshak,Afghanistan,AF,Bamyan,BAM,34.166666666,67.783333333,0
3207915,Q3918379,ADM2,Guldara,Guldara,Afghanistan,AF,Kabul,KAB,34.748055555,68.995277777,0
3400558,Q2537755,ADM2,Gulistan District,Gulistan District,Afghanistan,AF,Farah,FRA,32.50666667,63.76916667,0
3235908,Q5617858,CITY,Gulran,Gulran,Afghanistan,AF,Herat Province,HER,35.1,61.67,0
3306588,Q2714281,ADM2,Gulran District,Gulran District,Afghanistan,AF,Herat Province,HER,35.1,61.67,0
3218882,Q5619740,CITY,Gur-e Mar,Gur-e Mar,Afghanistan,AF,Balkh,BAL,36.728333333,67.268055555,0
3292597,Q2216061,ADM2,Gurbuz District,Gurbuz District,Afghanistan,AF,Khost,KHO,33.202222222,69.9425,29627
3289673,Q5620616,ADM2,Gurziwan,Gurziwan,Afghanistan,AF,Faryab,FYB,35.632222222,65.283055555,0
3372766,Q10293165,CITY,Gustaw,Gustaw,Afghanistan,AF,Badakhshan,BDS,37.024444444,73.900555555,0
3404591,Q2714236,ADM2,Guzara District,Guzara District,Afghanistan,AF,Herat Province,HER,34.1256,62.2352,0
3278983,Q3696092,ADM2,Guzargahi Nur,Guzargahi Nur,Afghanistan,AF,Baghlan,BGL,36.229444444,69.574722222,0
3326887,Q3364500,CITY,Hairatan,Hairatan,Afghanistan,AF,Balkh,BAL,37.2169,67.4169,0
3365670,Q5639899,CITY,Haji Khel,Haji Khel,Afghanistan,AF,Ghazni,GHA,32.9928,67.9653,0
3343291,Q5678297,CITY,Hasan Tal,Hasan Tal,Afghanistan,AF,Baghlan,BGL,36.224166666,68.799166666,0
3280035,Q5678328,CITY,Hasan khēl,Hasan khēl,Afghanistan,AF,Zabul,ZAB,32.20888889,66.67194444,0
3437726,Q5686106,CITY,Hayata,Hayata,Afghanistan,AF,Balkh,BAL,36.998333333,66.761944444,0
3251046,Q5687547,CITY,Hazar Cheshmeh,Hazar Cheshmeh,Afghanistan,AF,Bamyan,BAM,35.301111111,67.007777777,0
3263183,Q2215304,ADM2,Hazar Sumuch,Hazar Sumuch,Afghanistan,AF,Takhar,TAK,36.926388888,69.569722222,0
3374430,Q5687753,CITY,Hazareh Toghay,Hazareh Toghay,Afghanistan,AF,Balkh,BAL,37.223888888,67.209166666,0
3226371,Q3696179,ADM2,Hazrati Sultan,Hazrati Sultan,Afghanistan,AF,Samangan,SAM,36.39,68.1908,0
779,Q45313,CITY,Herat,Herat,Afghanistan,AF,Herat Province,HER,34.34817,62.19967,556205
3312016,Q3696278,ADM2,Herat District,Herat District,Afghanistan,AF,Herat Province,HER,34.34194,62.20306,0
3390874,Q3125041,ADM2,Hesa Awal Kohistan,Hesa Awal Kohistan,Afghanistan,AF,Kapisa,KAP,35.138611111,69.344722222,0
3204554,Q3696113,ADM2,Hesa Duwum Kohistan,Hesa Duwum Kohistan,Afghanistan,AF,Kapisa,KAP,35.073333333,69.3325,0
3362675,Q3694366,ADM2,Hesarak,Hesarak,Afghanistan,AF,Nangarhar,NAN,34.279444444,69.768611111,0
3297221,Q5877904,CITY,Hojm-e Bala,Hojm-e Bala,Afghanistan,AF,Badakhshan,BDS,38.347222222,70.865277777,0
3401956,Q5922649,CITY,Howz-e Shah-e Bala,Howz-e Shah-e Bala,Afghanistan,AF,Badakhshan,BDS,37.756944444,70.501666666,0
3252363,Q5996943,CITY,Ilakah,Ilakah,Afghanistan,AF,Bamyan,BAM,34.3,67.416666666,0
3384106,Q5997260,CITY,Ilbak,Ilbak,Afghanistan,AF,Kandahar,KAN,32.23305556,66.11166667,0
3205625,Q15228459,CITY,Imam Rabat,Imam Rabat,Afghanistan,AF,Helmand,HEL,32.86694444,64.69638889,0
766,Q670101,CITY,Imam Sahib,Imam Sahib,Afghanistan,AF,Kunduz,KDZ,37.184444444,68.914444444,12655
3420645,Q1315873,ADM2,Imam Sahib,Imam Sahib,Afghanistan,AF,Kunduz,KDZ,37.181976,68.917151,0
3218242,Q6032506,CITY,Ingishkah,Ingishkah,Afghanistan,AF,Sar-e Pol,SAR,36.19944444,65.86888889,0
3207336,Q3694433,ADM2,Injil District,Injil District,Afghanistan,AF,Herat Province,HER,34.3001,62.2499,0
3382856,Q6078957,CITY,Isari,Isari,Afghanistan,AF,Badakhshan,BDS,37.1425,70.525555555,0
3367444,Q3309230,ADM2,Ishkamish,Ishkamish,Afghanistan,AF,Takhar,TAK,36.367222222,69.39,0
310,Q1026731,CITY,Ishkashim,Ishkashim,Afghanistan,AF,Badakhshan,BDS,36.709166666,71.573888888,12120
3374127,Q2670884,ADM2,Ishkashim District,Ishkashim District,Afghanistan,AF,Badakhshan,BDS,36.706388888,71.573055555,0
3383565,Q6595513,ADM2,Ishtarlay District,Ishtarlay District,Afghanistan,AF,Daykundi,DAY,34.1,66.316666666,0
3242302,Q6081716,CITY,Islam Pinjah,Islam Pinjah,Afghanistan,AF,Balkh,BAL,37.29555556,66.33833333,0
3,Q4115284,CITY,Islam Qala,Islam Qala,Afghanistan,AF,Herat Province,HER,34.666667,61.066667,18086
3425684,Q15228857,CITY,Islam Towarabaf,Islam Towarabaf,Afghanistan,AF,Jowzjan,JOW,37.04305556,66.23361111,0
3272398,Q6086675,CITY,Ispin Kai,Ispin Kai,Afghanistan,AF,Balkh,BAL,36.786388888,66.658888888,0
3291418,Q1674831,ADM2,Istalif,Istalif,Afghanistan,AF,Kabul,KAB,34.833,69.077,0
3472135,Q826488,CITY,Istalif,Istalif,Afghanistan,AF,Kabul,KAB,34.8325,69.077222222,0
3323077,Q15228906,CITY,Istoway,Istoway,Afghanistan,AF,Nimruz,NIM,31.99666667,63.15,0
3362759,Q6089002,CITY,Istowi,Istowi,Afghanistan,AF,Farah,FRA,33.14916667,63.92833333,0
3392931,Q249194,ADM2,Jabal Saraj District,Jabal Saraj District,Afghanistan,AF,Parwan,PAR,35.0657,69.2639,0
3472185,Q21754950,CITY,Jabal os Saraj,Jabal os Saraj,Afghanistan,AF,Parwan,PAR,35.11833,69.23778,15032
3402479,Q3696517,ADM2,Jaghatu,Jaghatu,Afghanistan,AF,Maidan Wardak,WAR,33.8554,68.3951,0
3214059,Q3694452,ADM2,Jaghatu District,Jaghatu District,Afghanistan,AF,Ghazni,GHA,33.577222,68.185556,0
3388001,Q2724474,ADM2,Jaghori District,Jaghori District,Afghanistan,AF,Ghazni,GHA,33.133055555,67.453611111,0
116,Q183303,CITY,Jalalabad,Jalalabad,Afghanistan,AF,Nangarhar,NAN,34.430277777,70.452777777,263312
3203593,Q13220172,ADM2,Jalalabad,Jalalabad,Afghanistan,AF,Nangarhar,NAN,34.421944444,70.463611111,0
3306864,Q6127756,CITY,Jamarj-e Bala,Jamarj-e Bala,Afghanistan,AF,Badakhshan,BDS,38.280555555,71.324444444,0
3436383,Q12206691,CITY,Janda,Janda,Afghanistan,AF,Ghazni,GHA,32.7261,67.6347,0
3222402,Q6150935,CITY,Jandar Gol-e Sofla,Jandar Gol-e Sofla,Afghanistan,AF,Bamyan,BAM,34.8,68.016666666,0
3324795,Q15229311,CITY,Jandar Gol-e `Olya,Jandar Gol-e `Olya,Afghanistan,AF,Bamyan,BAM,34.75,68.03333333,0
3401818,Q3696213,ADM2,Janikhel District,Janikhel District,Afghanistan,AF,Paktia Zurmat,PIA,33.655277777,69.786666666,0
3221655,Q6595993,ADM2,Janikhel District (Paktika),Janikhel District (Paktika),Afghanistan,AF,Paktika,PKA,32.665,68.480555555,0
3424808,Q6160158,CITY,Jarf,Jarf,Afghanistan,AF,Badakhshan,BDS,38.2425,70.550833333,0
3231328,Q6160176,CITY,Jarghan,Jarghan,Afghanistan,AF,Sar-e Pol,SAR,35.87611111,65.89361111,0
3405069,Q6165851,CITY,Javqol,Javqol,Afghanistan,AF,Bamyan,BAM,34.666666666,68.033333333,0
3422252,Q6166016,CITY,Jawak,Jawak,Afghanistan,AF,Sar-e Pol,SAR,35.31083333,66.02555556,0
3374512,Q2429284,ADM2,Jawand,Jawand,Afghanistan,AF,Badghis,BDG,35.059444444,64.150833333,0
3325863,Q6166048,CITY,Jawand,Jawand,Afghanistan,AF,Badghis,BDG,35.05944444,64.15083333,0
3432277,Q6197644,CITY,Jim Qal`eh,Jim Qal`eh,Afghanistan,AF,Bamyan,BAM,34.85,67.516666666,0
135,Q10308323,CITY,Jorm,Jorm,Afghanistan,AF,Badakhshan,BDS,36.866666666,70.834444444,12106
3438175,Q6296862,CITY,Jow Kham,Jow Kham,Afghanistan,AF,Badakhshan,BDS,36.565833333,70.946666666,0
3368607,Q6296864,CITY,Jow Palal,Jow Palal,Afghanistan,AF,Bamyan,BAM,34.9,67.5,0
3216534,Q6296866,CITY,Jow Qowl,Jow Qowl,Afghanistan,AF,Bamyan,BAM,34.733333333,68.033333333,0
3282870,Q6296908,CITY,Jowlan,Jowlan,Afghanistan,AF,Baghlan,BGL,35.624166666,68.321666666,0
3292541,Q6296939,CITY,Jowzari,Jowzari,Afghanistan,AF,Bamyan,BAM,34.7,67.816666666,0
3348381,Q2670928,ADM2,Jurm,Jurm,Afghanistan,AF,Badakhshan,BDS,36.8464,70.86012,0
3337976,Q6319175,CITY,Juy Vakil,Juy Vakil,Afghanistan,AF,Balkh,BAL,37.370277777,66.979166666,0
3421873,Q6319168,CITY,Juy-ye Shadi,Juy-ye Shadi,Afghanistan,AF,Bamyan,BAM,34.983333333,67.983333333,0
3260579,Q6319170,CITY,Juy-ye `Arab,Juy-ye `Arab,Afghanistan,AF,Balkh,BAL,37.002777777,66.800555555,0
216,Q5838,CITY,Kabul,Kabul,Afghanistan,AF,Kabul,KAB,34.532777777,69.165833333,4273156
3726214,Q6344428,ADM2,Kabul District,Kabul District,Afghanistan,AF,Kabul,KAB,34.516666666,69.15,0
3314662,Q6345010,CITY,Kadalak,Kadalak,Afghanistan,AF,Bamyan,BAM,34.833333333,67.633333333,0
3344375,Q6345144,CITY,Kadanak,Kadanak,Afghanistan,AF,Farah,FRA,32.32333333,62.09861111,0
3278028,Q6346242,CITY,Kafsh Andaz,Kafsh Andaz,Afghanistan,AF,Bamyan,BAM,34.8621166,68.0503826,0
3403126,Q6346310,CITY,Kaga,Kaga,Afghanistan,AF,Nangarhar,NAN,34.23694444,70.18055556,0
3719263,Q21815785,CITY,Kahi,Kahi,Afghanistan,AF,Nangarhar,NAN,34.12583,70.70778,15098
3231273,Q2322035,ADM2,Kahmard,Kahmard,Afghanistan,AF,Bamyan,BAM,35.31916667,67.63361111,0
3380637,Q6347040,CITY,Kahmard,Kahmard,Afghanistan,AF,Bamyan,BAM,35.333333333,67.5,0
3339721,Q6348847,CITY,Kajaki,Kajaki,Afghanistan,AF,Helmand,HEL,32.282777777,65.060277777,0
3422419,Q222963,ADM2,Kajaki District,Kajaki District,Afghanistan,AF,Helmand,HEL,32.484166666,65.038611111,0
3399867,Q3305166,ADM2,Kajran District,Kajran District,Afghanistan,AF,Daykundi,DAY,33.214444444,65.6175,0
3438876,Q6349211,CITY,Kakan,Kakan,Afghanistan,AF,Badakhshan,BDS,37.215555555,70.343055555,0
3237195,Q6349243,ADM2,Kakar District,Kakar District,Afghanistan,AF,Zabul,ZAB,32.86,67.181388888,0
3391544,Q2215359,ADM2,Kalafgan,Kalafgan,Afghanistan,AF,Takhar,TAK,36.787777777,69.915,0
3276587,Q3918370,ADM2,Kalakan,Kalakan,Afghanistan,AF,Kabul,KAB,34.7625,69.175555555,0
3380377,Q6350508,CITY,Kalan Eylgah,Kalan Eylgah,Afghanistan,AF,Badakhshan,BDS,37.381666666,70.729722222,0
3345049,Q6350794,CITY,Kalat,Kalat,Afghanistan,AF,Badakhshan,BDS,35.965555555,70.589722222,0
3360191,Q3694285,ADM2,Kaldar,Kaldar,Afghanistan,AF,Balkh,BAL,37.126944444,67.548888888,0
3351792,Q6354205,CITY,Kalokh,Kalokh,Afghanistan,AF,Balkh,BAL,36.850277777,66.869166666,0
3200142,Q3503777,ADM2,Kama,Kama,Afghanistan,AF,Nangarhar,NAN,34.4125,70.638888888,0
3264874,Q6356177,CITY,Kamati,Kamati,Afghanistan,AF,Bamyan,BAM,34.7,67.583333333,0
3392293,Q1722904,ADM2,Kamdesh,Kamdesh,Afghanistan,AF,Nuristan,NUR,35.483333333,71.316666666,0
3358493,Q4810042,CITY,Kamdesh,Kamdesh,Afghanistan,AF,Nuristan,NUR,35.416666666,71.333333333,0
953,Q45604,CITY,Kandahar,Kandahar,Afghanistan,AF,Kandahar,KAN,31.61332,65.71013,614254
3327514,Q2673970,ADM2,Kandahar District,Kandahar District,Afghanistan,AF,Kandahar,KAN,31.6119,65.6811,0
3308222,Q6361395,CITY,Kandeh Sang,Kandeh Sang,Afghanistan,AF,Baghlan,BGL,35.590555555,68.593333333,0
3287559,Q2630613,ADM2,Kang District,Kang District,Afghanistan,AF,Nimruz,NIM,31.3211,61.83517,0
3221621,Q6362929,CITY,Kangur,Kangur,Afghanistan,AF,Bamyan,BAM,34.966666666,67.9,0
3268220,Q6362935,CITY,Kangurchi,Kangurchi,Afghanistan,AF,Badakhshan,BDS,36.750555555,70.151666666,0
3847864,Q127418850,CITY,Karim Kushta,Karim Kushta,Afghanistan,AF,Nimruz,NIM,31.19385,61.9185,0
3347911,Q6371175,CITY,Kariz-e Zaman-e Bala,Kariz-e Zaman-e Bala,Afghanistan,AF,Badghis,BDG,34.819444444,62.477777777,0
3375713,Q6371176,CITY,Kariz-e Zaman-e Kalgandi,Kariz-e Zaman-e Kalgandi,Afghanistan,AF,Badghis,BDG,34.791388888,62.478055555,0
3247588,Q6371178,CITY,Kariz-e Zaman-e Pa'in,Kariz-e Zaman-e Pa'in,Afghanistan,AF,Badghis,BDG,34.85,62.478611111,0
3204919,Q6371283,CITY,Karkat,Karkat,Afghanistan,AF,Badakhshan,BDS,36.983333333,73.383333333,0
58,Q6373621,CITY,Karukh,Karukh,Afghanistan,AF,Herat Province,HER,34.49,62.59,17484
3349909,Q2630333,ADM2,Karukh District,Karukh District,Afghanistan,AF,Herat Province,HER,34.5113,62.6276,0
3370726,Q6373882,CITY,Karz,Karz,Afghanistan,AF,Kandahar,KAN,31.56666667,65.71666667,0
3282238,Q6374391,CITY,Kashkandyow,Kashkandyow,Afghanistan,AF,Badakhshan,BDS,36.823611111,72.085277777,0
3382977,Q6375001,CITY,Katah Khak,Katah Khak,Afghanistan,AF,Bamyan,BAM,34.466666666,67.566666666,0
3427199,Q6377769,CITY,Katok,Katok,Afghanistan,AF,Bamyan,BAM,34.716666666,67.666666666,0
3420229,Q6378470,CITY,Katway,Katway,Afghanistan,AF,Bamyan,BAM,34.7667,67.7667,0
3217127,Q6379982,CITY,Kawida,Kawida,Afghanistan,AF,Badakhshan,BDS,38.321111111,71.201666666,0
3412784,Q6385610,CITY,Keligan,Keligan,Afghanistan,AF,Bamyan,BAM,34.85,66.683333333,0
3228908,Q6394916,CITY,Kesektan,Kesektan,Afghanistan,AF,Kapisa,KAP,35.0467,69.2919,0
3241633,Q6395014,CITY,Keshem,Keshem,Afghanistan,AF,Badakhshan,BDS,36.806388888,70.104166666,0
3304432,Q6395019,CITY,Keshendeh,Keshendeh,Afghanistan,AF,Balkh,BAL,36.084166666,66.840277777,0
3643588,Q6395020,CITY,Keshendeh-ye Bala,Keshendeh-ye Bala,Afghanistan,AF,Balkh,BAL,36.120277777,67.011944444,0
3643951,Q6395023,CITY,Keshendeh-ye Pa'in,Keshendeh-ye Pa'in,Afghanistan,AF,Balkh,BAL,36.151944444,66.922777777,0
3392371,Q6398916,ADM2,Khadir District,Khadir District,Afghanistan,AF,Daykundi,DAY,33.896666666,65.753888888,0
3334819,Q6399174,CITY,Khak Dow,Khak Dow,Afghanistan,AF,Bamyan,BAM,34.955555555,67.260833333,0
3246211,Q6399164,CITY,Khak-e Babeh,Khak-e Babeh,Afghanistan,AF,Bamyan,BAM,34.883333333,68.166666666,0
3285719,Q6399166,CITY,Khak-e Cheghel,Khak-e Cheghel,Afghanistan,AF,Bamyan,BAM,34.598055555,67.181666666,0
3202308,Q6399172,CITY,Khak-i Jabbar,Khak-i Jabbar,Afghanistan,AF,Kabul,KAB,34.4056,69.4944,0
3216864,Q2673881,ADM2,Khaki Jabbar,Khaki Jabbar,Afghanistan,AF,Kabul,KAB,34.365,69.433611111,0
3400029,Q2710798,ADM2,Khaki Safed District,Khaki Safed District,Afghanistan,AF,Farah,FRA,32.65388889,62.10222222,0
3391929,Q3195949,CITY,Khakrez,Khakrez,Afghanistan,AF,Kandahar,KAN,31.985,65.4728,0
3353030,Q2670922,ADM2,Khakrez District,Khakrez District,Afghanistan,AF,Kandahar,KAN,31.985,65.47277778,0
3321502,Q6399223,CITY,Khal Khan,Khal Khan,Afghanistan,AF,Badakhshan,BDS,36.541388888,71.352777777,0
3252234,Q6399257,CITY,Khalamad,Khalamad,Afghanistan,AF,Bamyan,BAM,34.083333333,67.5,0
3392521,Q6399881,CITY,Kham-e Ganak,Kham-e Ganak,Afghanistan,AF,Bamyan,BAM,34.833333333,67.766666666,0
3380904,Q3694437,ADM2,Khamyab,Khamyab,Afghanistan,AF,Jowzjan,JOW,37.313611111,65.721111111,0
583,Q1247205,CITY,Khan Abad,Khan Abad,Afghanistan,AF,Kunduz,KDZ,36.683055555,69.163611111,26803
3396923,Q2217955,ADM2,Khan Abad,Khan Abad,Afghanistan,AF,Kunduz,KDZ,36.603055555,69.104166666,0
3236415,Q2630677,ADM2,Khanashin District,Khanashin District,Afghanistan,AF,Helmand,HEL,30.833333333,63.5,0
748,Q3290334,CITY,Khandud,Khandud,Afghanistan,AF,Badakhshan,BDS,36.948888888,72.316944444,1244
3365224,Q10314259,CITY,Khaneqa,Khaneqa,Afghanistan,AF,Badakhshan,BDS,36.546111111,70.689444444,0
3440002,Q6400283,CITY,Khaneqah,Khaneqah,Afghanistan,AF,Balkh,BAL,36.443333333,67.161666666,0
3212640,Q3694326,ADM2,Khani Chahar Bagh,Khani Chahar Bagh,Afghanistan,AF,Faryab,FYB,37.111111111,65.229722222,0
3199026,Q1897927,ADM2,Khaniqa,Khaniqa,Afghanistan,AF,Jowzjan,JOW,36.783888888,66.128611111,0
3296599,Q6400479,CITY,Khar Bid,Khar Bid,Afghanistan,AF,Badghis,BDG,34.780833333,64.391388888,0
3199004,Q6400491,CITY,Khar Kat-e Bala,Khar Kat-e Bala,Afghanistan,AF,Badakhshan,BDS,38.275277777,70.929444444,0
3203117,Q6400586,CITY,Kharat,Kharat,Afghanistan,AF,Badakhshan,BDS,36.966666666,72.933333333,0
3412207,Q2215350,ADM2,Kharwar,Kharwar,Afghanistan,AF,Logar,LOG,33.695,68.892777777,0
3425717,Q2665194,ADM2,Khas Kunar District,Khas Kunar District,Afghanistan,AF,Kunar,KNR,34.6458,70.9008,0
3308788,Q2215441,ADM2,Khas Urozgan District,Khas Urozgan District,Afghanistan,AF,Urozgan,URU,33.0,66.69,0
79,Q21752345,CITY,Khash,Khash,Afghanistan,AF,Nimruz,NIM,31.529166666,62.790555555,15133
3343422,Q2670874,ADM2,Khash,Khash,Afghanistan,AF,Badakhshan,BDS,36.940277777,70.725555555,0
3232624,Q6400828,CITY,Khash Darreh,Khash Darreh,Afghanistan,AF,Badakhshan,BDS,36.90561,70.75941,0
3350649,Q2630589,ADM2,Khash Rod District,Khash Rod District,Afghanistan,AF,Nimruz,NIM,31.777259,62.972405,0
3279233,Q6400845,CITY,Khashpak,Khashpak,Afghanistan,AF,Badakhshan,BDS,36.663333333,71.4875,0
3297873,Q6401001,CITY,Khaval,Khaval,Afghanistan,AF,Bamyan,BAM,34.766666666,67.833333333,0
3357977,Q6401151,CITY,Khazget,Khazget,Afghanistan,AF,Badakhshan,BDS,36.966666666,72.933333333,0
3289094,Q6401298,ADM2,Khenj,Khenj,Afghanistan,AF,Panjshir,PAN,35.429722222,69.784444444,0
3257567,Q6401299,CITY,Khenjan,Khenjan,Afghanistan,AF,Baghlan,BGL,35.585555555,68.9025,0
3258118,Q6401401,CITY,Khevaj,Khevaj,Afghanistan,AF,Badakhshan,BDS,38.224444444,71.011388888,0
3271995,Q6401428,CITY,Kheyrabad,Kheyrabad,Afghanistan,AF,Balkh,BAL,36.967222222,67.056111111,0
3295881,Q1035284,ADM2,Khinjan,Khinjan,Afghanistan,AF,Baghlan,BGL,35.471388888,68.973611111,0
3373138,Q2444923,ADM2,Khogyani,Khogyani,Afghanistan,AF,Nangarhar,NAN,34.231388888,70.149444444,0
3398750,Q6402018,CITY,Khogyani,Khogyani,Afghanistan,AF,Ghazni,GHA,35.98333333,68.66666667,0
3417504,Q4816997,ADM2,Khogyani District,Khogyani District,Afghanistan,AF,Ghazni,GHA,33.559166666,68.298888888,0
831,Q1014375,CITY,Kholm,Kholm,Afghanistan,AF,Balkh,BAL,36.683333333,67.683333333,28078
3204854,Q6402150,CITY,Khombok,Khombok,Afghanistan,AF,Badakhshan,BDS,36.460277777,70.331388888,0
3312964,Q2214789,ADM2,Khoshi,Khoshi,Afghanistan,AF,Logar,LOG,34.001388888,69.274722222,0
3438630,Q15238026,CITY,Khoshkak,Khoshkak,Afghanistan,AF,Bamyan,BAM,34.85,68.08333333,0
810,Q386682,CITY,Khost,Khost,Afghanistan,AF,Khost,KHO,33.333333333,69.916666666,160214
3388085,Q2216038,ADM2,Khost (Matun) District,Khost (Matun) District,Afghanistan,AF,Khost,KHO,33.34045,70.0038,0
3277448,Q2749737,ADM2,Khost wa Fereng,Khost wa Fereng,Afghanistan,AF,Baghlan,BGL,35.904722222,69.664722222,0
3230350,Q6402864,CITY,Khughaz,Khughaz,Afghanistan,AF,Badakhshan,BDS,38.433333333,70.8,0
3392848,Q6402891,CITY,Khuk-e Koshteh,Khuk-e Koshteh,Afghanistan,AF,Bamyan,BAM,34.6,66.716666666,0
3436042,Q3696017,ADM2,Khulm,Khulm,Afghanistan,AF,Balkh,BAL,36.814444444,67.743333333,0
3394665,Q3696240,ADM2,Khuram Wa Sarbagh,Khuram Wa Sarbagh,Afghanistan,AF,Samangan,SAM,35.9113,68.2862,0
3255421,Q6403270,CITY,Khvajeh Hasan,Khvajeh Hasan,Afghanistan,AF,Bamyan,BAM,34.766666666,67.583333333,0
3294700,Q6403274,CITY,Khvajeh Jeyran,Khvajeh Jeyran,Afghanistan,AF,Baghlan,BGL,36.04,69.251111111,0
3433743,Q6403280,CITY,Khvajeh Kowshah,Khvajeh Kowshah,Afghanistan,AF,Bamyan,BAM,35.028611111,66.473611111,0
3278500,Q6403284,CITY,Khvajeh Owlia',Khvajeh Owlia',Afghanistan,AF,Baghlan,BGL,35.855833333,69.280833333,0
3328557,Q6403286,CITY,Khvajeh Qalandar,Khvajeh Qalandar,Afghanistan,AF,Badghis,BDG,34.773888888,62.663055555,0
3222586,Q6403322,CITY,Khvolah,Khvolah,Afghanistan,AF,Bamyan,BAM,34.283333333,67.566666666,0
3407197,Q6403367,CITY,Khvosh Asia,Khvosh Asia,Afghanistan,AF,Badghis,BDG,34.967222222,62.346666666,0
3246740,Q6403377,CITY,Khvosh Margh,Khvosh Margh,Afghanistan,AF,Badghis,BDG,34.85,63.066666666,0
3404626,Q2673868,ADM2,Khwahan,Khwahan,Afghanistan,AF,Badakhshan,BDS,37.8886,70.2194,0
3418070,Q6403261,CITY,Khwahan,Khwahan,Afghanistan,AF,Badakhshan,BDS,37.8886,70.2194,0
3283272,Q3918372,ADM2,Khwaja Baha Wuddin,Khwaja Baha Wuddin,Afghanistan,AF,Takhar,TAK,37.339166666,69.5825,0
3444157,Q6403443,CITY,Khwaja Du Koh,Khwaja Du Koh,Afghanistan,AF,Jowzjan,JOW,36.8158,65.6178,0
3338861,Q2652585,ADM2,Khwaja Du Koh District,Khwaja Du Koh District,Afghanistan,AF,Jowzjan,JOW,36.948333333,65.612222222,0
3203548,Q2215381,ADM2,Khwaja Ghar District,Khwaja Ghar District,Afghanistan,AF,Takhar,TAK,37.01827,69.39796,0
3305171,Q3696090,ADM2,Khwaja Hijran,Khwaja Hijran,Afghanistan,AF,Baghlan,BGL,35.97,68.29,0
3384952,Q6403434,ADM2,Khwaja Sabz Posh,Khwaja Sabz Posh,Afghanistan,AF,Faryab,FYB,36.058611111,64.965833333,0
3314622,Q384741,ADM2,Khwaja Umari District,Khwaja Umari District,Afghanistan,AF,Ghazni,GHA,33.675555555,68.421666666,0
3359778,Q2879146,ADM2,Kishim,Kishim,Afghanistan,AF,Badakhshan,BDS,36.77,70.13166667,0
3365281,Q6425778,CITY,Kogel Say,Kogel Say,Afghanistan,AF,Balkh,BAL,36.143611111,66.777222222,0
3327732,Q3694430,ADM2,Koh Band,Koh Band,Afghanistan,AF,Kapisa,KAP,35.1094,69.4275,0
3391840,Q1650497,ADM2,Kohi Safi District,Kohi Safi District,Afghanistan,AF,Parwan,PAR,34.7953,69.5261,0
3389232,Q4809030,ADM2,Kohistan,Kohistan,Afghanistan,AF,Faryab,FYB,35.3811,64.7561,0
3262483,Q3694407,ADM2,Kohistan,Kohistan,Afghanistan,AF,Badakhshan,BDS,37.42833333,70.68277778,0
3200637,Q3696160,ADM2,Kohistanat,Kohistanat,Afghanistan,AF,Sar-e Pol,SAR,35.43834,65.93647,0
263,Q6426147,CITY,Kohsan,Kohsan,Afghanistan,AF,Herat Province,HER,34.65,61.18,12087
3207807,Q513241,ADM2,Kohsan District,Kohsan District,Afghanistan,AF,Herat Province,HER,34.613333333,61.166111111,0
3287636,Q6431394,CITY,Koran va Monjan,Koran va Monjan,Afghanistan,AF,Badakhshan,BDS,36.028611111,70.7725,0
3309541,Q6433144,CITY,Koshk-e Kohneh,Koshk-e Kohneh,Afghanistan,AF,Badghis,BDG,34.871388888,62.548333333,0
3261432,Q1647510,ADM2,Kot,Kot,Afghanistan,AF,Nangarhar,NAN,34.153055555,70.595277777,0
3396078,Q6435012,CITY,Kowarzan,Kowarzan,Afghanistan,AF,Herat Province,HER,34.29194444,62.12666667,0
3289619,Q6435032,CITY,Kowkcha'il,Kowkcha'il,Afghanistan,AF,Badghis,BDG,34.8775,62.825,0
3282954,Q6435036,CITY,Kowlian,Kowlian,Afghanistan,AF,Faryab,FYB,35.884722222,65.401388888,0
3438339,Q6435090,CITY,Kowri,Kowri,Afghanistan,AF,Badakhshan,BDS,36.558333333,70.284166666,0
3407802,Q6435100,CITY,Kowtkay,Kowtkay,Afghanistan,AF,Bamyan,BAM,34.45,66.95,0
3261595,Q6441451,CITY,Kucheh-ye Zard,Kucheh-ye Zard,Afghanistan,AF,Badghis,BDG,34.843055555,62.939722222,0
3219101,Q280595,ADM2,Kuf Ab District,Kuf Ab District,Afghanistan,AF,Badakhshan,BDS,38.0411,70.4786,0
3338026,Q6442024,CITY,Kuh Gaday,Kuh Gaday,Afghanistan,AF,Bamyan,BAM,35.031111111,67.639444444,0
803,Q108155,CITY,Kunduz,Kunduz,Afghanistan,AF,Kunduz,KDZ,36.728888888,68.856944444,356536
3472137,Q2217913,ADM2,Kunduz District,Kunduz District,Afghanistan,AF,Kunduz,KDZ,36.72861111,68.86805556,0
3440926,Q6447924,CITY,Kushgag,Kushgag,Afghanistan,AF,Badakhshan,BDS,36.769444444,70.971666666,0
3076926,Q5195620,CITY,Kushk,Kushk,Afghanistan,AF,Herat Province,HER,34.95,62.25,5410
3241694,Q2537726,ADM2,Kushk District,Kushk District,Afghanistan,AF,Herat Province,HER,35.059439,62.295313,0
3342382,Q6448027,CITY,Kushka,Kushka,Afghanistan,AF,Balkh,BAL,36.796666666,66.566944444,0
3201393,Q6448034,CITY,Kushkak,Kushkak,Afghanistan,AF,Balkh,BAL,36.698611111,66.903888888,0
3315575,Q2214387,ADM2,Kushki Kuhna District,Kushki Kuhna District,Afghanistan,AF,Herat Province,HER,34.885833333,62.628611111,0
3220734,Q3696145,ADM2,Kuz Kunar,Kuz Kunar,Afghanistan,AF,Nangarhar,NAN,34.559166666,70.606944444,0
885,Q21813067,CITY,Lab-Sar,Lab-Sar,Afghanistan,AF,Balkh,BAL,36.026388888,66.838055555,1068
3308265,Q6472086,CITY,Laghar Juy,Laghar Juy,Afghanistan,AF,Nangarhar,NAN,34.1,70.53333333,0
3247303,Q15241251,CITY,Lagharak,Lagharak,Afghanistan,AF,Bamyan,BAM,34.93333333,68.18333333,0
3199275,Q2217888,ADM2,Lal Pur,Lal Pur,Afghanistan,AF,Nangarhar,NAN,34.333333333,71.024722222,0
3351499,Q6480442,CITY,Lalkhanabad,Lalkhanabad,Afghanistan,AF,Laghman,LAG,34.5531,70.2269,0
3310918,Q6480519,CITY,Lalma,Lalma,Afghanistan,AF,Bamyan,BAM,34.8,68.2,0
3314858,Q15241532,CITY,Langar,Langar,Afghanistan,AF,Badakhshan,BDS,36.74361111,71.93805556,0
3351431,Q6485710,CITY,Langar Khaneh-ye Kalan,Langar Khaneh-ye Kalan,Afghanistan,AF,Balkh,BAL,36.764444444,67.026944444,0
3338456,Q6488495,CITY,Lar-e Gari,Lar-e Gari,Afghanistan,AF,Bamyan,BAM,34.983333333,67.95,0
922,Q21752020,CITY,Larkird,Larkird,Afghanistan,AF,Sar-e Pol,SAR,35.489444444,66.664166666,11635
3271898,Q6489744,CITY,Laron,Laron,Afghanistan,AF,Badakhshan,BDS,38.101388888,70.466944444,0
3213822,Q6489761,CITY,Larow,Larow,Afghanistan,AF,Bamyan,BAM,34.3,67.5,0
3252605,Q2537782,ADM2,Lash Wa Juwayn District,Lash Wa Juwayn District,Afghanistan,AF,Farah,FRA,31.82611111,61.23,0
437,Q476800,CITY,Lashkar Gah,Lashkar Gah,Afghanistan,AF,Helmand,HEL,31.593819444,64.371611111,201546
3214377,Q2456350,CITY,Lashkargah District,Lashkargah District,Afghanistan,AF,Helmand,HEL,31.456111111,64.540277777,0
3303771,Q3918382,ADM2,Lazha Ahmadkhel District,Lazha Ahmadkhel District,Afghanistan,AF,Paktia Zurmat,PIA,33.815277777,69.633888888,0
3441434,Q3826237,CITY,La‘l,La‘l,Afghanistan,AF,Ghōr,GHO,34.501388888,66.28,0
3438811,Q2402318,ADM2,La‘l wa Sar Jangal District,La‘l wa Sar Jangal District,Afghanistan,AF,Ghōr,GHO,34.604166666,66.274166666,0
3350423,Q6520502,CITY,Lejay,Lejay,Afghanistan,AF,Helmand,HEL,33.15,65.13333333,0
3336814,Q15243283,CITY,Ma`dan-e Karkar,Ma`dan-e Karkar,Afghanistan,AF,Baghlan,BGL,36.03388889,68.77166667,0
3374674,Q6728758,CITY,Madud,Madud,Afghanistan,AF,Badakhshan,BDS,38.106111111,70.911111111,0
3282294,Q6730374,CITY,Magh Nawul,Magh Nawul,Afghanistan,AF,Badakhshan,BDS,36.045,70.964444444,0
3430557,Q6732606,CITY,Mah-e Now,Mah-e Now,Afghanistan,AF,Badakhshan,BDS,38.400555555,70.692777777,0
3240594,Q6732834,CITY,Mahajer,Mahajer,Afghanistan,AF,Baghlan,BGL,36.177222222,68.7675,0
3384795,Q3047144,ADM2,Mahmud Raqi,Mahmud Raqi,Afghanistan,AF,Kapisa,KAP,35.004722222,69.420833333,0
227,Q600514,CITY,Mahmud-i-Raqi,Mahmud-i-Raqi,Afghanistan,AF,Kapisa,KAP,35.020555555,69.330555555,7407
4,Q935810,CITY,Maidan Shar,Maidan Shar,Afghanistan,AF,Maidan Wardak,WAR,34.397222222,68.869722222,35008
3324930,Q6735338,ADM2,Maidan Shar District,Maidan Shar District,Afghanistan,AF,Maidan Wardak,WAR,34.443888888,68.824722222,0
3328123,Q6743128,CITY,Malestan,Malestan,Afghanistan,AF,Ghazni,GHA,33.2953,67.1689,0
3215488,Q3694369,ADM2,Malestan District,Malestan District,Afghanistan,AF,Ghazni,GHA,33.29836,67.24322,0
3226063,Q1889040,ADM2,Mandol District,Mandol District,Afghanistan,AF,Nuristan,NUR,35.4,70.25,0
3226203,Q2215517,ADM2,Mandozayi District,Mandozayi District,Afghanistan,AF,Khost,KHO,33.316666666,69.78,0
3259380,Q6749194,CITY,Mangwal,Mangwal,Afghanistan,AF,Kunar,KNR,34.60194444,70.82805556,0
3314783,Q6755110,CITY,Marawara,Marawara,Afghanistan,AF,Kunar,KNR,34.8914,71.1808,0
3287669,Q2665179,ADM2,Marawara District,Marawara District,Afghanistan,AF,Kunar,KNR,34.861666666,71.228888888,0
3280948,Q368189,ADM2,Mardyan District,Mardyan District,Afghanistan,AF,Jowzjan,JOW,37.052222222,66.328888888,0
3335162,Q1894503,CITY,Marja,Marja,Afghanistan,AF,Helmand,HEL,31.516666666,64.116666666,0
539,Q21758384,CITY,Markaz-e Ḩukūmat-e Darwēshān,Markaz-e Ḩukūmat-e Darwēshān,Afghanistan,AF,Helmand,HEL,31.132222222,64.193333333,9012
3298269,Q3696085,ADM2,Marmul,Marmul,Afghanistan,AF,Balkh,BAL,36.634722222,67.335,0
3371540,Q3918449,ADM2,Maruf District,Maruf District,Afghanistan,AF,Kandahar,KAN,31.446388888,67.252777777,0
3332006,Q6783197,CITY,Mashorey,Mashorey,Afghanistan,AF,Paktika,PKA,32.2,68.36666667,0
3224782,Q1650524,ADM2,Mata Khan District,Mata Khan District,Afghanistan,AF,Paktika,PKA,33.296944444,68.886111111,0
285,Q309345,CITY,Maymana,Maymana,Afghanistan,AF,Faryab,FYB,35.933333333,64.75,96000
3459002,Q6004792,ADM2,Maymana,Maymana,Afghanistan,AF,Faryab,FYB,35.93333,64.75,0
3245977,Q6797354,CITY,Maymey,Maymey,Afghanistan,AF,Badakhshan,BDS,38.409444444,71.038611111,0
3402716,Q2669299,ADM2,Maywand District,Maywand District,Afghanistan,AF,Kandahar,KAN,31.583611111,64.993333333,0
756,Q130469,CITY,Mazar-i-Sharif,Mazar-i-Sharif,Afghanistan,AF,Balkh,BAL,36.7,67.116666666,469247
3241627,Q6005441,ADM2,Mazar-i-Sharif,Mazar-i-Sharif,Afghanistan,AF,Balkh,BAL,36.70974,67.11682,0
3426045,Q6826354,CITY,Meydan,Meydan,Afghanistan,AF,Balkh,BAL,36.904444444,66.918055555,0
3299715,Q6826528,CITY,Meymik,Meymik,Afghanistan,AF,Badakhshan,BDS,38.241666666,70.556666666,0
100,Q1982155,CITY,Mihtarlam,Mihtarlam,Afghanistan,AF,Laghman,LAG,34.67139,70.20944,17345
3347269,Q1229983,ADM2,Mihtarlam,Mihtarlam,Afghanistan,AF,Laghman,LAG,34.645589,70.181422,0
3218195,Q6862735,CITY,Mina Vad,Mina Vad,Afghanistan,AF,Badakhshan,BDS,38.240555555,70.979444444,0
3330210,Q6864685,CITY,Mingajik,Mingajik,Afghanistan,AF,Jowzjan,JOW,37.0272,66.1283,0
3268643,Q278470,ADM2,Mingajik District,Mingajik District,Afghanistan,AF,Jowzjan,JOW,37.055277777,65.989166666,0
91,Q6872026,CITY,Mir Bacha Kot,Mir Bacha Kot,Afghanistan,AF,Kabul,KAB,34.7467,69.1164,5405
3393067,Q6597749,ADM2,Mir Bacha Kot,Mir Bacha Kot,Afghanistan,AF,Kabul,KAB,34.727222222,69.118333333,0
3194124,Q10330474,CITY,Mir Qasem,Mir Qasem,Afghanistan,AF,Balkh,BAL,36.644444444,66.9075,0
3376685,Q6597733,ADM2,Miramor District,Miramor District,Afghanistan,AF,Daykundi,DAY,33.825277777,66.943055555,0
3394947,Q6872881,CITY,Miranza'i,Miranza'i,Afghanistan,AF,Badghis,BDG,35.667222222,63.291111111,0
3196186,Q6872937,CITY,Miray,Miray,Afghanistan,AF,Ghazni,GHA,33.3272,68.4406,0
3333876,Q6873632,CITY,Mirkan,Mirkan,Afghanistan,AF,Badakhshan,BDS,36.47,70.181388888,0
3443077,Q3918509,ADM2,Miyanishin District,Miyanishin District,Afghanistan,AF,Kandahar,KAN,32.381111111,66.336388888,0
3213619,Q6884578,CITY,Mizak,Mizak,Afghanistan,AF,Badakhshan,BDS,38.234722222,70.977777777,0
3308876,Q2214402,ADM2,Mizan District,Mizan District,Afghanistan,AF,Zabul,ZAB,32.178888888,66.506388888,0
3332073,Q1889696,ADM2,Mohammad Agha,Mohammad Agha,Afghanistan,AF,Logar,LOG,34.176666666,69.221111111,0
3260022,Q2217936,ADM2,Momand Dara,Momand Dara,Afghanistan,AF,Nangarhar,NAN,34.204722222,70.984166666,0
3264763,Q6908846,CITY,Moqor,Moqor,Afghanistan,AF,Badghis,BDG,35.039444444,63.291944444,0
3725279,Q21763679,CITY,Muhmand Dara,Muhmand Dara,Afghanistan,AF,Nangarhar,NAN,34.2475,70.872222222,6835
3386812,Q6934067,CITY,Mulla Wali Waleh,Mulla Wali Waleh,Afghanistan,AF,Kandahar,KAN,31.17944444,66.57638889,0
3290724,Q4808934,ADM2,Muqur,Muqur,Afghanistan,AF,Ghazni,GHA,32.887661111,67.901572222,0
3318746,Q2711334,ADM2,Muqur,Muqur,Afghanistan,AF,Badghis,BDG,35.02805556,63.27,0
3223342,Q6938509,CITY,Murichaq,Murichaq,Afghanistan,AF,Badghis,BDG,35.810833333,63.145,0
3390485,Q1953989,CITY,Musa Qala,Musa Qala,Afghanistan,AF,Helmand,HEL,32.4433,64.7444,0
3341674,Q2714292,ADM2,Musa Qala District,Musa Qala District,Afghanistan,AF,Helmand,HEL,32.469166666,64.736388888,0
3446172,Q3694503,ADM2,Musakhel District,Musakhel District,Afghanistan,AF,Khost,KHO,33.583888888,69.681944444,0
3199767,Q3918437,ADM2,Mussahi,Mussahi,Afghanistan,AF,Kabul,KAB,34.369166666,69.218333333,0
191,Q21751462,CITY,Mīrābād,Mīrābād,Afghanistan,AF,Nimruz,NIM,30.436111111,61.838333333,14160
3284122,Q6956485,CITY,Na`man,Na`man,Afghanistan,AF,Baghlan,BGL,35.736111111,68.6575,0
3286596,Q477326,ADM2,Nad Ali District,Nad Ali District,Afghanistan,AF,Helmand,HEL,31.578055555,63.790833333,0
3238800,Q3696175,ADM2,Nadir Shah Kot District,Nadir Shah Kot District,Afghanistan,AF,Khost,KHO,33.3111,69.6933,0
3218362,Q6959381,CITY,Nahr-e Shahi,Nahr-e Shahi,Afghanistan,AF,Balkh,BAL,36.7,67.083333333,0
3428051,Q2215504,ADM2,Nahri Saraj District,Nahri Saraj District,Afghanistan,AF,Helmand,HEL,31.834722222,64.6125,0
3400645,Q3694351,ADM2,Nahri Shahi,Nahri Shahi,Afghanistan,AF,Balkh,BAL,36.84,67.18,0
634,Q6959392,CITY,Nahrin,Nahrin,Afghanistan,AF,Baghlan,BGL,36.05,69.08333333,22363
3184708,Q3694319,ADM2,Nahrin,Nahrin,Afghanistan,AF,Baghlan,BGL,35.998333333,69.028333333,107000
3351127,Q6960581,CITY,Nakhjirabad,Nakhjirabad,Afghanistan,AF,Balkh,BAL,37.01,66.888888888,0
3236864,Q2214818,ADM2,Namak Ab District,Namak Ab District,Afghanistan,AF,Takhar,TAK,36.471388888,69.714722222,0
3370818,Q11789462,CITY,Nangar Khel,Nangar Khel,Afghanistan,AF,Paktika,PKA,32.43972222,68.36888889,0
3429393,Q798530,ADM2,Narang Aw Badil District,Narang Aw Badil District,Afghanistan,AF,Kunar,KNR,34.7533,71.0175,0
3444994,Q2663271,ADM2,Nari District,Nari District,Afghanistan,AF,Kunar,KNR,35.2103,71.525,0
3255389,Q6982102,CITY,Navarid Qipchaq,Navarid Qipchaq,Afghanistan,AF,Balkh,BAL,36.822777777,66.539722222,0
3224942,Q1650518,ADM2,Naw Bahar District,Naw Bahar District,Afghanistan,AF,Zabul,ZAB,32.217222222,67.570833333,0
3445553,Q6982724,CITY,Nawa,Nawa,Afghanistan,AF,Ghazni,GHA,32.3236,67.8772,0
3385484,Q2673982,ADM2,Nawa District,Nawa District,Afghanistan,AF,Ghazni,GHA,32.32361111,67.87722222,0
3307279,Q2673865,ADM2,Nawur District,Nawur District,Afghanistan,AF,Ghazni,GHA,33.791702,67.8582,0
3476103,Q2456330,ADM2,Nawzad District,Nawzad District,Afghanistan,AF,Helmand,HEL,32.2205,64.5768,0
3357520,Q2217899,ADM2,Nazyan,Nazyan,Afghanistan,AF,Nangarhar,NAN,34.055833333,70.825833333,0
3283590,Q10335931,CITY,Nechkah,Nechkah,Afghanistan,AF,Balkh,BAL,37.0425,66.623333333,0
3332912,Q15261473,CITY,Negala,Negala,Afghanistan,AF,Sar-e Pol,SAR,35.87611111,65.89361111,0
3394783,Q2673998,ADM2,Nesh District,Nesh District,Afghanistan,AF,Kandahar,KAN,32.388611111,65.705,0
3375215,Q6997304,CITY,Nesharv,Nesharv,Afghanistan,AF,Badakhshan,BDS,38.065277777,71.229166666,0
3848595,Q3341466,CITY,Nijrab,Nijrab,Afghanistan,AF,Kapisa,KAP,34.9775,69.5742,0
3415973,Q741985,ADM2,Nijrab District,Nijrab District,Afghanistan,AF,Kapisa,KAP,35.046388888,69.646111111,0
3257690,Q1650486,ADM2,Nika District,Nika District,Afghanistan,AF,Paktika,PKA,33.200382,69.311593,0
3286619,Q3241119,CITY,Nili,Nili,Afghanistan,AF,Daykundi,DAY,33.716666666,66.116666666,30058
3039783,Q3218967,ADM2,Nili District,Nili District,Afghanistan,AF,Daykundi,DAY,33.71666667,66.11666667,30058
3384510,Q7037511,CITY,Nim Lik,Nim Lik,Afghanistan,AF,Balkh,BAL,36.843333333,66.530555555,0
3210947,Q6966017,ADM2,Nirkh,Nirkh,Afghanistan,AF,Maidan Wardak,WAR,34.35647,68.73963,0
3286396,Q7066340,CITY,Nowabad-e Ish,Nowabad-e Ish,Afghanistan,AF,Badakhshan,BDS,38.003611111,70.496111111,0
3343237,Q16895998,CITY,Nur Gal,Nur Gal,Afghanistan,AF,Kunar,KNR,34.6108,70.7569,0
3212515,Q798464,ADM2,Nurgal District,Nurgal District,Afghanistan,AF,Kunar,KNR,34.693888888,70.731111111,0
3307739,Q3696055,ADM2,Nurgaram District,Nurgaram District,Afghanistan,AF,Nuristan,NUR,35.08333333,70.46666667,0
3352134,Q5198956,CITY,Obe,Obe,Afghanistan,AF,Herat Province,HER,34.369722222,63.176388888,0
3230684,Q2714266,ADM2,Obe District,Obe District,Afghanistan,AF,Herat Province,HER,34.3734,63.1952,0
3384397,Q1650535,ADM2,Omna District,Omna District,Afghanistan,AF,Paktika,PKA,32.894166666,68.813333333,23400
3220579,Q7091659,CITY,Onab,Onab,Afghanistan,AF,Badakhshan,BDS,37.017777777,70.14,0
3365590,Q7102156,CITY,Orgun,Orgun,Afghanistan,AF,Balkh,BAL,36.803055555,66.970833333,0
3219065,Q7114789,CITY,Owghlan,Owghlan,Afghanistan,AF,Balkh,BAL,36.379722222,66.895833333,0
3218235,Q7114995,CITY,Owtah Kol,Owtah Kol,Afghanistan,AF,Balkh,BAL,36.896111111,67.050555555,0
3414307,Q7121292,CITY,Pa'in Bowkan,Pa'in Bowkan,Afghanistan,AF,Badghis,BDG,35.605277777,63.618611111,0
3324728,Q7121293,CITY,Pa'in Shahr,Pa'in Shahr,Afghanistan,AF,Badakhshan,BDS,37.064166666,70.7825,0
3386474,Q2217598,ADM2,Pachir Aw Agam,Pachir Aw Agam,Afghanistan,AF,Nangarhar,NAN,34.087777777,70.280555555,0
3262587,Q7123684,CITY,Padeh-ye Laghari,Padeh-ye Laghari,Afghanistan,AF,Badghis,BDG,34.886944444,62.882777777,0
3412963,Q7123686,CITY,Padeh-ye Nowkdari,Padeh-ye Nowkdari,Afghanistan,AF,Badghis,BDG,34.895555555,62.939166666,0
